constructionyear;locality;organbuilder;architect;stopsnumber;manualsnumber;pedals;oc_lat;oc_lng;oc_formatted
1873;Abild Kirke ;Marcussen & Søn;;10;1;Pedal;54.9809441;8.8608884;Abild Kirke, Kirkevej, 6270 Tønder, Denmark
2002;Daugbjerg Kirke ;P.G. Andersen & Bruhn;;8;2;Pedal;56.4340736;9.1303781;Daugbjerg Kirke, Sejbækvej, 7850 Stoholm, Denmark
2002;Esbjerg, Vor Frelsers Kirke ;P.G. Andersen & Bruhn;Vilhelmsen, Marxen og Bech-Jensen. [Iflg. annonce, Menighedsrådenes Blad 2002].;43;3;Pedal;55.4675552;8.4489422;Vor Frelsers Kirke, Kirkegade, 6700 Esbjerg, Denmark
1972;Esbjerg, Vor Frelsers Kirke ;P. Bruhn;;4;1;(Intet Pedal);55.4675552;8.4489422;Vor Frelsers Kirke, Kirkegade, 6700 Esbjerg, Denmark
1975;Frejlev Kirke ;Bruno Christensen & Sønner;Erik Sørensen (2007). Arkitektfirma Brøgger (2007) [iflg. medd. fra orgelbyggeriet 2008].;9;2;Pedal;57.0085038;9.8205484;Frejlev Kirke, Verdisvej, 9200 Aalborg SV, Denmark
1861;Havrebjerg Valgmenighedskirke ;Jens Gregersen;;5;1;(Intet Pedal);55.4481935;11.311265;Havrebjerg Valgmenighedskirke, Kirkestien, 4200 Slagelse, Denmark
1968;Hellevad Kirke ;Th. Frobenius & Sønner;Leopold Teschl [Christensen 2018];14;2;Pedal;57.2128884;10.1527386;Hellevad Kirke, Bredkærsvej, 9320 Hjallerup, Denmark
1975;Herrested Kirke ;Fyns Orgelbyggeri;;11;2;Pedal;55.2803646;10.6111442;Herrested Kirke, Måre Byvej, 5863 Ferritslev, Denmark
1979;Hjortshøj Kirke ;Marcussen & Søn;;17;2;Pedal;56.2523215;10.2652023;Hjortshøj Kirke, Gammel Kirkevej, 8530 Hjortshøj, Denmark
1975;Hjørring, Sct. Catharinæ Kirke ;Marcussen & Søn;Harald Lønborg-Jensen;47;3;Pedal;57.4618001;9.9824746;Sanct Catharinæ Kirke, Store Kirkestræde, 9800 Hjørring, Denmark
1977;Hoed Kirke ;Th. Frobenius & Sønner;;5;1;Pedal;56.3141902;10.8170482;Hoed Kirke, Glatvedvej, 8444 Balle, Denmark
2004;Hunseby Kirke ;Marcussen & Søn;Peter Bering.;13;2;Pedal;54.7983785;11.5145926;Hunseby Church, Hunseby Kirkevej, 4930 Maribo, Denmark
1974;Hårslev Kirke ;Th. Frobenius & Sønner;;12;2;Pedal;55.2717506;11.4798566;Hårslev Kirke, Hårslevvej, 4262 Sandved, Denmark
1966;Karlby Kirke ;Jydsk Orgelbyggeri;;6;1;Pedal;56.3484526;10.2892816;Karlby Kirke, Slotsvej, 8543 Hornslet, Denmark
2002;Kauslunde Kirke ;Carsten Lund;Orgelbyggeriet;10;2;Pedal;55.4847257;9.8080502;Kauslunde Kirke, Kauslundevej, 5500 Middelfart, Denmark
2002;København, Vor Frue Kirke;Carsten Lund;Ebbe Lehn Petersen.;28;2;Pedal;55.6793766;12.5727267;Church of Our Lady, Dyrkøb, 1166 Copenhagen, Denmark
2001;Lyngby Kirke ;Th. Frobenius & Sønner;Vilhelmsen, Marxen og Bech-Jensen. [Se noter].;10;2;Pedal;55.773475;12.5002735;Lyngby Kirke, Lyngby Hovedgade, 2800 Kongens Lyngby, Denmark
1961;Nim Kirke ;Th. Frobenius & Co;;6;1;Pedal;55.9271679;9.6814481;Nim Kirke, Kirkevej, Nim, Denmark
2002;Ryde Kirke ;Th. Frobenius & Sønner;;10;2;Pedal;56.4334928;8.7783013;Ryde Kirke, Skolevænget, 7830 Vinderup, Denmark
2002;Rønninge Kirke ;Gunnar Fabricius Husted;Ebbe Lehn Petersen;17;2;Pedal;55.3446392;10.6044368;Rønninge Kirke, Rønninge Bygade, 5550 Langeskov, Denmark
2003;Stjær Kirke ;Marcussen & Søn;Per Kristensens Tegnestue [Menighedsrådenes Blad 2004,5].;12;2;Pedal;56.1172703;9.9540635;Stjær Kirke, Østerbro, 8464 Galten, Denmark
1970;Svogerslev Kirke ;Frederiksborg Orgelbyggeri;Rolf Graae;10;2;Pedal;55.634202;12.0150503;Svogerslev Kirke, Svogerslev Kirkevej, Svogerslev, Denmark
1968;Sønder Nærå Kirke ;Th. Frobenius & Sønner;> 1968: Ebbe Lehn Petersen. [Se noter]. > 2002: Ebbe Marxen [iflg. meddelelse fra orgelbyggeriet]];12;2;Pedal;55.3082533;10.4919945;Sankt Mikaels Kirke, Bøjden, Sønder Nærå, Denmark
2002;Tårup Kirke ;Marcussen & Søn;;10;2;Pedal;55.2344329;10.7738344;Taarup Kirke, Tårup Byvej, 5871 Frørup, Denmark
1946;Ulbjerg Kirke ;Th. Frobenius & Co;Fin Ditlevsen;7;1;Pedal;56.6276064;9.346319;Ulbjerg Kirke, Bakken, Ulbjerg, Denmark
1965;Uvelse Kirke ;Frederiksborg Orgelbyggeri;Rolf Graae;7;1;Pedal;55.8673603;12.2394631;Uvelse Kirke, Kirkestræde, 3330 Gørløse, Denmark
1990;Vejstrup Kirke ;P. Bruhn & Søn;Ebbe Lehn Petersen. [Iflg. medd. fra orgelbyggeriet].;10;2;Pedal;55.1043557;10.7100501;Vejstrup Kirke, Egemosevej, 5882 Vejstrup, Denmark
2002;Vilstrup Kirke ;Marcussen & Søn;;15;2;Pedal;55.2002234;9.5164399;Vilstrup Kirke, Vilstrup Kirkevej, 6100 Haderslev, Denmark
1971;Ålsø Kirke ;Th. Frobenius & Sønner;;9;2;Pedal;56.3722217;10.8515193;Ålsø Kirke, Ellebjergvej, Norddjurs Municipality, Denmark
1973;Aarhus, Sct. Lukas Kirke ;Marcussen & Søn;Kai Gottlob.;40;3;Pedal;NA;NA;NA
1971;Drigstrup Kirke ;Th. Frobenius & Sønner;> Ebbe Lehn Petersen [Se noter].;4;1;(Intet Pedal);55.4666194;10.6090191;Drigstrup Kirke, Drigstrup Bygade, 5300 Kerteminde, Denmark
1882;Døstrup Kirke ;Marcussen & Søn;;10;1;Pedal;55.1149207;8.7994117;Døstrup Kirke, Genforeningsvej, Døstrup, Denmark
1966;Guldager Kirke ;Marcussen & Søn;> Rolf Graae og Richard Aas.;18;2;Pedal;55.5308697;8.4002379;Guldager Kirke, Guldagervej, 6710 Esbjerg V, Denmark
2002;Lyngså Kirke ;Bruno Christensen & Sønner;Øjvind Jørgensen;12;2;Pedal;57.2379744;10.5083438;Lyngså Kirke, Østkystvejen, Lyngså, Denmark
2002;Redsted Kirke ;Bruno Christensen & Sønner;Gert Madsen.;12;2;Pedal;56.7400191;8.6523711;Redsted Kirke, Vindbakken, 7970 Redsted, Denmark
1981;Agerbæk Kirke ;Jydsk Orgelbyggeri;;11;2;Pedal;55.598096;8.8051797;Agerbæk Kirke, Kærbjergvej, 6753 Agerbæk, Denmark
2001;Broholm Kirke ;Bruno Christensen & Sønner;Lars Mindedal.;9;2;Pedal;55.3544443;10.1843576;Broholm Kirke, Kirkevej, 5690 Tommerup, Denmark
1946;Brøndum Kirke ;Th. Frobenius & Co;Fin Ditlevsen.;8;1;Pedal;56.5904692;8.9154614;Brøndum Kirke, Brøndum Kirkevej, Hvidbjerg, Denmark
1964;Døllefjelde Kirke ;Frederiksborg Orgelbyggeri;1964: J.K. Jepsen. 1980: Rolf Graae. 2001: Varmings Tegnestue, Præstø.;7;1;Pedal;54.7322105;11.6912726;Døllefjelde Kirke, Strædet, Guldborgsund Municipality, Denmark
2001;Espe Kirke ;Bruno Christensen & Sønner;Ebbe Lehn Petersen.;13;2;Pedal;55.2004851;10.4119298;Espe Kirke, Kirkegade, Espe, Denmark
1878;Felsted Kirke ;Marcussen & Søn;;10;1;Pedal;54.9740824;9.4970389;Felsted Kirke, Kirkevej, Felsted, Denmark
2001;Fuglse Kirke ;Bruno Christensen & Sønner;Varmings Tegnestue, Præstø.;13;2;Pedal;54.7079767;11.5135003;Fuglse Kirke, Fuglsevej, 4960 Holeby, Denmark
2001;Helsingør, Sct. Mariæ Kirke;Marcussen & Søn;;10;1;Pedal;56.0370246;12.6126858;Sankt Mariæ Kirke og Vor Frue Kloster, Hestemøllestræde, 3000 Helsingør, Denmark
2001;Herringe Kirke ;P.G. Andersen & Bruhn;Ebbe Lehn Petersen [Iflg. medd. fra orgelbyggeriet].;11;2;Pedal;55.2040887;10.4489058;Herringe Kirke, Rudmevej, 5750 Ringe, Denmark
1966;Herritslev Kirke ;I. Starup & Søn;;5;1;Pedal;54.6943891;11.6662451;Herritslev Kirke, Sakskøbingvej, Store Musse, Denmark
1977;Horsens, Sønderbro Kirke ;Marcussen & Søn;Paul Niepoort. [Iflg. medd. fra orgelbyggeriet].;22;2;Pedal;55.8585339;9.8402151;Sønderbro Kirke, Bygholm Parkvej, 8700 Horsens, Denmark
1989;Horsens, Vestermark Kirke ;Bruno Christensen & Sønner;;12;2;Pedal;55.8743853;9.8364991;Vestermark Kirke, Fussingsvej, 8700 Horsens, Denmark
1878;Ketting Kirke ;Ph. Furtwängler & Söhne;;13;2;Pedal;54.9669607;9.898283;Ketting Kirke, Kirkevænget, 6440 Augustenborg, Denmark
2001;København, Sct. Pauls Kirke;Henk Klop;;5;1;(Intet Pedal);NA;NA;NA
1979;København, Tagensbo Kirke;Carsten Lund;Orgelbyggeriet.;20;2;Pedal;55.7083436;12.534249;Tagensbo Kirke, Landsdommervej, 2400 København NV, Denmark
2001;Langeslund Kirke ;Th. Frobenius & Sønner;Øjvind Jørgensen. [Iflg. annonce, Menighedsrådenes Blad 2002].;16;2;Pedal;57.1220615;9.621518;Langeslund Kirke, Thyvej, Arentsminde, Denmark
2001;Lejrskov Kirke ;P.G. Andersen & Bruhn;;14;2;Pedal;55.5161487;9.3368198;Lejrskov Kirke, Asbøl, Lejrskov Kirkevej, 6640 Lunderskov, Denmark
1968;Skallerup Kirke ;Frederiksborg Orgelbyggeri;Rolf Graae.;13;2;Pedal;57.4791254;9.8520274;Skallerup Kirke, Nørremøllevej, Hjørring Municipality, Denmark
2001;Lundeborg Kirke ;P.G. Andersen & Bruhn;Lars Mindedal.;9;2;Pedal;55.1341565;10.7784419;Lundeborg Kirke, Knarreborg Møllevej, 5874 Hesselager, Denmark
2001;Måløv Kirke ;Carsten Lund;Orgelbyggeriet.;17;2;Pedal;55.7518011;12.317873;Måløv Kirke, Kratvej, 2760 Måløv, Denmark
1995 (?);Niløse Kirke ;Bruno Christensen & Sønner;;6;1;Pedal;55.5575548;11.4951093;Niløse Kirke, Kongstedvej, 4293 Dianalund, Denmark
1962;Roerslev Kirke ;Th. Frobenius & Co;Leopold Teschl.;6;1;Pedal;55.4866279;9.8635826;Roerslev Kirke, Kirkebjergvej, 5580 Nørre, Denmark
2001;Seest Kirke ;Anders Havgaard Rasmussen;;13;2;Pedal;55.483076;9.4375116;Seest Kirke, Seestvej, 6000 Kolding, Denmark
2000;Skibinge Kirke ;Anders Havgaard Rasmussen;Orgelbyggeriet.;8;2;Pedal;55.1017339;12.0249085;Skibinge Kirke, Ronesbanke, 4720 Præstø, Denmark
2000;Støvring Kirke ;Marcussen & Søn;Poul Brøgger.;19;2;Pedal;56.5028488;10.1756466;Støvring Kirke, Murhusbakken, Støvring, Denmark
2001;Støvringgård Klosterkirke ;Marcussen & Søn;;4;1;Anhangspedal;NA;NA;NA
1967;Svendborg, Sct. Nicolaj Kirke ;Marcussen & Søn;Rolf Graae (1967). Havsteen-Mikkelsens Tegnestue, ved ark. Steffen Petersen (2016).;41;4;Pedal;NA;NA;NA
2001;Sønder Tranders Kirke ;Bruno Christensen & Sønner;Poul Brøggers Arkitektfirma v/ Erik Sørensen [Iflg. annoncetekst i Menighdsrådenes Blad 2002].;18;2;Pedal;57.0095618;9.9863732;Sønder Tranders Kirke, Gulnarevej, 9220 Aalborg Øst, Denmark
2002;Vester Skerninge Kirke ;Th. Frobenius & Sønner;;14;2;Pedal;55.0750489;10.4607322;Vester Skerninge Kirke, Fåborgvej, 5762 Vester, Denmark
1974;Aalborg, Hans Egedes Kirke ;Marcussen & Søn;;24;2;Pedal;57.0228212;9.9416898;Hans Egedes Kirke, Umanakvej, 9210 Aalborg SØ, Denmark
1962;Aarhus, Fredens Kirke ;Frederiksborg Orgelbyggeri;;28;3;Pedal;NA;NA;NA
2000;Adslev Kirke ;Th. Frobenius & Sønner;;10;2;Pedal;56.0988241;9.993773;Adslev Kirke, Gammel Ryvej, 8362 Hørning, Denmark
2001;Balling Kirke ;Bruno Christensen & Sønner;Arkitekterne, Thisted.;12;2;Pedal;56.6256152;8.8863621;Balling Kirke, Nittrup, Præstestien, Balling, Denmark
2000;Bedsted Kirke ;Marcussen & Søn;Hans Lund.;15;2;Pedal;55.0584184;9.1057096;Bedsted Kirke, Kirkegade, Bedsted, Denmark
1975;Bovense Kirke ;Th. Frobenius & Sønner;Knud, Erik og Ebbe Lehn Petersen.;7;1;Pedal;55.3823239;10.7215054;Bovense Kirke, Ringervej, Nyborg Municipality, Denmark
2000;Bramdrup Kirke ;Marcussen & Søn;Birch & Svenning.;11;2;Pedal;55.522797;9.4771132;Bramdrup Kirke, Kirkely, 6000 Kolding, Denmark
2000;Bølling Kirke ;Bruno Christensen & Sønner;Ib Lydholm.;10;2;Pedal;55.9767668;8.5541053;Bølling Kirke, Vester Kirkevej, Bølling, Denmark
2000;Drejø Kirke ;Th. Frobenius & Sønner;;4;1;Anhangspedal;54.9668956;10.4197457;Drejø Kirke, Kirkevejen, Svendborg Municipality, Denmark
2000;Emb Kirke ;Gunnar Fabricius Husted;> Jørgen Ussing Bømler.;7;1;Pedal;56.7161219;8.6919568;Blidstrup Kirke, Åbakken, 7970 Redsted, Denmark
2000;Farendløse Kirke ;Jensen & Thomsen;H. Flye Jensen. [Iflg. Dagbladet, Ringsted 4. maj 2000].;10;2;Pedal;55.3897007;11.8883157;Farendløse Kirke, Møllemarken, Farendløsevej, Farendløse, Denmark
2001;Grenå Kirke ;Jensen & Thomsen;Alan Havsteen-Mikkelsen;34;3;Pedal;56.4134828;10.8759741;Grenaa Kirke, Torvet, 8500 Grenaa, Denmark
1970;Hareskov Kirke ;Th. Frobenius & Co;;11;2;Pedal;55.7638467;12.398840999999999;Hareskov Kirke, Skovbovænget, 3500 Værløse, Denmark
2000;Holte, Ny Holte Kirke ;P.G. Andersen & Bruhn;> Rolf Schütze []https://www.kulturarv.dk/kid/VisKunstner.do?kunstnerId=10469;31;3;Pedal;55.8197682;12.4640559;Holte Kirke, Rudemarken, 2840 Holte, Denmark
1967;Hornborg Kirke ;Marcussen & Søn;Esben Klint.;7;1;Pedal;55.8552077;9.6651;Hornborg Kirke, Kirkesvinget, 8762 Flemming, Denmark
1884;Horsens Hospitalskirke ;Frederik Nielsen;;6;1;Pedal;NA;NA;NA
1977;Horsens, Vor Frelsers Kirke ;Th. Frobenius & Sønner;Inger & Johannes Exner [Iflg. medd. fra orgelbyggeriet 1978].;41;3;Pedal;55.8621584;9.8519061;Vor Frelsers Kirke, Torvet, 8700 Horsens, Denmark
2000;Jystrup Kirke ;P.G. Andersen & Bruhn;;9;2;Pedal;55.5157438;11.8682745;Jystrup Kirke, Jystrup Bygade, 4174 Jystrup, Denmark
2000;Kirke Helsinge Kirke ;P.G. Andersen & Bruhn;Mogens Andersen.;13;2;Pedal;55.5163214;11.2067591;Kirke Helsinge Kirke, Søndergade, 4281 Gørlev, Denmark
2000;Kollund Kirke ;Bruno Christensen & Sønner;Ebbe Lehn Petersen;14;2;Pedal;54.8415864;9.4528354;Kollund Kirke, Drosselvej, 6340 Kruså, Denmark
1974;København, Kastrup Kirke;Th. Frobenius & Sønner;;24;2;Pedal;NA;NA;NA
2000;Køge Kirke;Marcussen & Søn;Karsten Vibild.;10;2;Pedal;55.45824;12.1830841;Sankt Nicolai Kirke, Nørregade, 4600 Køge, Denmark
2000;Resen Kirke ;Jensen & Thomsen;Alan Havsteen-Mikkelsen. [Iflg. annonce fra orgelbyggeriet].;10;2;Pedal;56.5894276;9.034557;Resen Kirke, Kirkevej, 7800 Skive, Denmark
2000;Roskilde Domkirke;Marcussen & Søn;;15;2;Pedal;55.6426436;12.0804349;Roskilde Cathedral, Domkirkepladsen, 4000 Roskilde, Denmark
2000;Roskilde Domkirke;Marcussen & Søn;;4;1;(Intet Pedal);55.6426436;12.0804349;Roskilde Cathedral, Domkirkepladsen, 4000 Roskilde, Denmark
2000;Skørping Kirke ;Gunnar Fabricius Husted;Alan Havsteen-Mikkelsen. [Iflg. meddelelse fra orgelbyggeriet 2001].;10;2;Pedal;56.8628213;9.8891531;Skørping Kirke, Gammel Skørpingvej, 9520 Skørping, Denmark
1974;Tamdrup Kirke ;Marcussen & Søn;;15;2;Pedal;55.8918793;9.7383183;Tamdrup Kirke, Bisgårdsvej, Horsens, Denmark
2000;Udbyneder Kirke ;Bruno Christensen & Sønner;Vilhelmsen, Marxen og Bech-Jensen.;13;2;Pedal;56.6591548;10.2344268;Udbyneder Kirke, Udbynedervej, 8970 Havndal, Denmark
2000;Vester Nebel Kirke ;P.G. Andersen & Bruhn;;12;2;Pedal;55.5412518;8.5425798;Vester Nebel Kirke, Stokbrovej, Vester Nebel, Denmark
1967;Volling Kirke ;Marcussen & Søn;;6;1;Pedal;56.6006995;8.8793545;Volling Kirke, Nyholmvej, Skive Municipality, Denmark
2000;Øster Nykirke Kirke ;Th. Frobenius & Sønner;Birch & Svenning;11;2;Pedal;NA;NA;NA
1961;Ål Kirke ;Th. Frobenius & Co;;13;2;Pedal;55.6314303;8.2814048;Aal Kirke, Kirkegade, 6840 Oksbøl, Denmark
1960;Aalborg, Vor Frue Kirke;Marcussen & Søn;;5;1;(Intet Pedal);57.0463634;9.9239599;Church of Our Lady, Aalborg, Vor Frue Plads, 9000 Aalborg, Denmark
1999;Ajstrup Kirke ;Th. Frobenius & Sønner;Øjvind Jørgensen;11;2;Pedal;57.1797975;9.9655677;Ajstrup Kirke, Ajstrupvej, 9381 Sulsted, Denmark
1999;Askov Kirke ;Jensen & Thomsen;Alan Havsteen-Mikkelsen [iflg. medd. fra orgelbyggeriet].;10;2;Pedal;55.4719459;9.10189;Askov kirke, Askov, Region of Southern Denmark, Denmark
1910;Bislev Kirke ;I. Starup;;8;1;Pedal;56.945319;9.6092294;Bislev Kirke, Halkærvej, 9240 Nibe, Denmark
1967;Ejdrup Kirke ;I. Starup & Søn;;9;2;Pedal;56.889617200000004;9.5354485;Ejdrup Kirke, Ejdrupvej, Aalborg Municipality, Denmark
1998;Elev Kirke ;Bruno Christensen & Sønner;> Jan Smærup [iflg. meddelelse fra orgelbyggeriet].;10;2;Pedal;56.2416502;10.1977626;Elev Kirke, Høvej, 8520 Lystrup, Denmark
1978;Estvad Kirke ;P. Bruhn & Søn;Orgelbyggeriet [medd. af dette 1979].;9;2;Pedal;56.5289608;8.9683541;Estvad Kirke, Flyndersøvej, Skive Municipality, Denmark
1999;Finderup Kirke ;Bruno Christensen & Sønner;Arkitekterne, Thisted v/ Ib Lydholm.;9;2;Pedal;56.412219;9.2878399;Finderup Kirke, Finderupvej, Viborg Municipality, Denmark
1976;Gangsted Kirke ;Marcussen & Søn;;5;1;Pedal;55.9257454;9.9963196;Gangsted Kirke, Kråsigvej, 8732 Hovedgård, Denmark
1986;Hogager Kirke ;P. Bruhn & Søn;Orgelbyggeriet.;7;1;Pedal;56.3716426;8.8526937;Hogager Kirke, Langgade, Holstebro Municipality, Denmark
1999;Holstebro Valgmenighedskirke ;Th. Frobenius & Sønner;;15;2;Pedal;56.3605947;8.6137448;Holstebro Valgmenighedskirke, Skolegade, 7500 Holstebro, Denmark
1972;Hygum Kirke ;P. Bruhn;;6;1;Pedal;55.3531796;8.9781611;Sønder Hygum Kirke, Ribevej, Sønder Hygum, Denmark
1971;Kollund Kirke ;Jensen & Thomsen;;5;1;Pedal;54.8415864;9.4528354;Kollund Kirke, Drosselvej, 6340 Kruså, Denmark
1999;Kousted Kirke ;Marcussen & Søn;Jacob Blegvad Arkitektkontor.;6;1;Pedal;56.5140942;9.9018808;Kousted Kirke, Sognevej, 8990 Fårup, Denmark
1999;København, Kingos Kirke;Marcussen & Søn;;21;2;Pedal;55.700921;12.5453088;Kingos Kirke, Bragesgade, 2200 København N, Denmark
1998;Lellinge Kirke ;Marcussen & Søn;Keld Wohlert.;14;2;Pedal;55.4673296;12.1111596;Lellinge Kirke, Ringstedvej, 4623 Lille, Denmark
1999;Lemvig Kirke ;P.G. Andersen & Bruhn;Ib Lydholm.;30;2;Pedal;56.5500171;8.309248;Lemvig Kirke, Torvet, 7620 Lemvig, Denmark
1999;Løjt Kirke;Marcussen & Søn;Vilhelmsen, Marxen og Bech-Jensen.;10;2;Pedal;55.0911224;9.4629587;Løjt Kirke, Løjt Storegade, Løjt Kirkeby, Denmark
1998;Nørre Alslev Kirke ;Marcussen & Søn;Rolf Graae.;15;2;Pedal;54.8984686;11.8733568;Nørre Alslev Kirke, Nørre Alslev Langgade, 4840 Nørre, Denmark
1999;Nørre Lyndelse Kirke ;Anders Havgaard Rasmussen;Orgelbyggeren.;12;2;Pedal;55.303753;10.3960021;Nørre Lyndelse Kirke, Lumbyvej, 5260 Odense S, Denmark
1983;Nørre Nissum Kirke ;P. Bruhn & Søn;;16;2;Pedal;56.5569407;8.408565;Nørre Nissum Kirke, Kirkebyen, Nørre Nissum, Denmark
1999;Odense, Sct. Knuds Kirke;Carsten Lund;Ebbe Lehn Petersen.;20;3;Pedal;NA;NA;NA
2000;Roskilde, Sct. Jørgensbjerg Kirke ;P.G. Andersen & Bruhn;Se noter.;22;3;Pedal;NA;NA;NA
1949;Rønnebæk Kirke ;Th. Frobenius & Co;;6;1;Pedal;55.216448;11.8114325;Rønnebæk Kirke, Bystævnet, 4700 Næstved, Denmark
1972;Sahl Kirke ;Th. Frobenius & Sønner;> Poul Hansen og Ib Lydholm. [Danmarks Kirker].;7;1;Pedal;56.4844689;8.8388067;Sahl Kirke, Agerbækvej, 7830 Vinderup, Denmark
1979;Selsø Kirke ;Th. Frobenius & Sønner;;8;1;Pedal;55.7436113;12.0061122;Selsø Kirke, Selsøvej, 4050 Skibby, Denmark
1965;Skellebjerg Kirke ;Brdr. Bruhn;;10;2;Pedal;55.5334925;11.4439285;Skellebjerg Kirke, Tåderupvej, 4293 Dianalund, Denmark
1973;Spentrup Kirke ;Jydsk Orgelbyggeri;;14;2;Pedal;56.5401035;10.0331754;Spentrup Kirke, Hastrupvej, 8981 Spentrup, Denmark
1975;Søvind Kirke ;Th. Frobenius & Sønner;;6;1;Pedal;55.8924191;10.0043088;Søvind Kirke, Kirkebjergvej, Søvind, Denmark
1998;Tulstrup Kirke ;P.G. Andersen & Bruhn;Jørn Schütze.;11;2;Pedal;56.0280935;10.14452;Tulstrup Kirke, Tulstrupvej, 8320 Mårslet, Denmark
1982;Tvis Kirke ;Th. Frobenius & Sønner;;13;2;Pedal;56.3209473;8.7109535;Tvis Kirke, Hovedgaden, Tvis, Denmark
1961;Vandborg Kirke ;Marcussen & Søn;K. Hansen-Møller, Holstebro [Se noter].;7;1;Pedal;56.5451604;8.1744091;Vandborg Kirke, Kirkensgårdvej, Lemvig Municipality, Denmark
1969;Vester Hjermitslev Kirke ;Jydsk Orgelbyggeri;;5;1;Pedal;57.292095;9.7548321;Vester Hjermitslev Kirke, Ingstrupvej, Vester Hjermitslev, Denmark
1999;Vester Kirke ;Bruno Christensen & Sønner;Gert Madsen [meddelt af Bruno Christensen & Sønner 2000].;6;1;Pedal;55.9239125;9.3491837;Vester Kirke, Vester Møllevej, Vejle Municipality, Denmark
1982;Vigsø Kirke ;Bruno Christensen & Sønner;;5;1;Pedal;57.0952693;8.7117488;Vigsø Kirke, Vigsøvej, Thisted Municipality, Denmark
1999;Viskum Kirke ;P.G. Andersen & Bruhn;;6;1;Pedal;56.45066;9.5882958;Viskum, Viskum Kirke, Østervangsvej, 8830 Tjele, Denmark
1998;Voldum Kirke ;Th. Frobenius & Sønner;Vilhelmsen, Marxen og Bech-Jensen.;14;2;Pedal;56.3643989;10.1703601;Voldum Kirke, Sophie Amalie Vej, Voldum, Denmark
1998;Ødsted Kirke ;Bruno Christensen & Sønner;Kuno Mielby. [Iflg. meddelelse fra orgelbyggeriet].;10;2;Pedal;55.6622285;9.3947502;Ødsted Kirke, Vesterbyvej, 7182 Bredsten, Denmark
1969;Ørsted Kirke ;Th. Frobenius & Sønner;;7;1;Pedal;55.332547;10.0566758;Ørsted Kirke, Christian Richardts Vej, 5560 Aarup, Denmark
1891;Øster Egesborg Kirke ;A.H. Busch & Sønner;;5;1;(Intet Pedal);55.0409425;12.0192037;Øster Egesborg Kirke, Øster Egesborgvej, 4773 Stensved, Denmark
1999;Øster Hassing Kirke ;Bruno Christensen & Sønner;Arkitektfirma Brøgger.;14;2;Pedal;57.0686633;10.1943611;Øster Hassing Kirke, Houvej, 9362 Gandrup, Denmark
1895 (?);Allerslev Kirke ;Frederik Nielsen;;4;1;(Intet Pedal);55.081248;12.0373973;Allerslev Kirke, Kirkestræde, 4720 Præstø, Denmark
1974;Alslev Kirke ;Bruno Christensen & Sønner;1996: Grønne, Thorup og Jessen. [Iflg. medd. fra orgelbyggeriet 1997].;11;2;Pedal;55.2900724;12.2030168;Alslev Kirke, Alslevvej, 4653 Karise, Denmark
1958;Arnborg Kirke ;Th. Frobenius & Sønner;;4;1;(Intet Pedal);56.0032784;8.9683226;Arnborg Kirke, Gammel Skarrildvej, Arnborg, Denmark
1973;Østerby Kirke ;Th. Frobenius & Sønner;;10;2;Pedal;57.3052796;11.1348625;Østerby Kirke, Østerbyvejen, Østerby Havn, Denmark
1862;Bogense Kirke ;Marcussen & Søn;;21;2;Pedal;55.5674054;10.0875334;Sct. Nikolaj Kirke, Kirkestræde, 5400 Bogense, Denmark
1967;Bording Kirke ;Marcussen & Søn;;8;2;Pedal;56.1678816;9.2482037;Bording Kirke, Klochsvej, 7441 Bording, Denmark
1969;Brøndum Kirke ;Th. Frobenius & Sønner;Rolf Graae og Richard Aas.;14;2;Pedal;56.5904692;8.9154614;Brøndum Kirke, Brøndum Kirkevej, Hvidbjerg, Denmark
1998;Byrum Kirke ;Th. Frobenius & Sønner;;14;2;Pedal;57.2548822;10.9990606;Byrum Kirke, Kirkestien, 9940 Læsø, Denmark
1998;Børglum Kirke ;Jensen & Thomsen;Orgelbyggeriet.;12;2;Pedal;57.3642227;9.8436866;Børglum Kirke, Børglum Kirkevej, Hjørring Municipality, Denmark
1975;Døstrup Kirke ;Bruno Christensen & Sønner;Se Orglet 2022,1 s. 42.;6;1;Pedal;55.1149207;8.7994117;Døstrup Kirke, Genforeningsvej, Døstrup, Denmark
1967;Daugård Kirke ;Th. Frobenius & Sønner;"Orgelbyggeriet. Standardtype ""Gunslev"". [Iflg. medd. fra orgelbyggeriet 1993].";7;1;Pedal;55.7328307;9.7192817;Daugård Kirke, Svends Møllevej, 8721 Daugård, Denmark
1860 (?);Diernæs Kirke ;Demant & Søn;;7;1;Pedal;55.1058896;10.2941354;Diernæs Kirke, Kirkemarken, 5600 Faaborg, Denmark
1988;Esbjerg, Grundtvigs Kirke ;Bruno Christensen & Sønner;> Richard Larsen [iflg. medd. fra orgelbyggeriet].;34;3;Pedal;NA;NA;NA
1998;Fanefjord Kirke ;Th. Frobenius & Sønner;;14;2;Pedal;54.9012807;12.151162;Fanefjord Kirke, Fanefjord Kirkevej, 4792 Askeby, Denmark
1971;Fiskbæk Kirke ;Jydsk Orgelbyggeri;.;6;1;Pedal;56.5121477;9.3099434;Fiskbæk Kirke, Skivevej, 8831 Løgstrup, Denmark
1846;Fredensborg Slotskirke ;Marcussen & Reuter;;17;2;Pedal;55.9826125;12.3967942;Fredensborg Slotskirke, Jagtallèen, 3480 Fredensborg, Denmark
1974;Frederikshavn Kirke ;Marcussen & Søn;Leopold Teschl.;39;3;Pedal;57.4404978;10.5383434;Frederikshavn Kirke, Havnepladsen, 9900 Frederikshavn, Denmark
1997;Gauerslund Kirke ;Marcussen & Søn;> Birch & Svenning.;20;2;Pedal;55.6479718;9.6621141;Gauerslund Kirke, Korsdalsvej, 7080 Børkop, Denmark
1977;Gedsted Kirke ;Bruno Christensen & Sønner;;6;1;Pedal;56.6879572;9.334086;Gedsted Kirke, Stadionvej, 9631 Gedsted, Denmark
1970;Gislev Kirke ;Marcussen & Søn;;13;2;Pedal;55.2213831;10.6032426;Gislev Kirke, Lykkesholmsvej, 5854 Gislev, Denmark
1988;Gjern Kirke ;Marcussen & Søn;;11;2;Pedal;56.2300912;9.7402809;Gjern Kirke, Sportsvej, 8883 Gjern, Denmark
1875;Græse Kirke ;Knud Olsen;;5;1;(Intet Pedal);55.8611607;12.0994305;Græse Kirke, Kirkestræde, 3600 Frederikssund, Denmark
1952;Gudum Kirke ;Marcussen & Søn;;11;1;Pedal;56.9501164;10.0687056;Gudum Kirke, Louisendalvej, Vaarst, Denmark
1997;Haldum Kirke ;Th. Frobenius & Sønner;Vilhelmsen, Marxen og Bech-Jensen.;17;2;Pedal;56.2795238;10.0428723;Haldum Kirke, Haldumvej, 8382 Hinnerup, Denmark
1969;Hansted Kirke ;Th. Frobenius & Sønner;;7;1;Pedal;55.8940571;9.844425;Hansted Kirke, Stængervej, 8700 Horsens, Denmark
1977;Harndrup Kirke ;Bruno Christensen & Sønner;Ebbe Lehn Petersen. [Iflg. Orglet 1978,1, s. 52].;8;1;Pedal;55.4645495;10.0187429;Harndrup Kirke, Vindebjergvej, 5463 Harndrup, Denmark
1989;Helgenæs Kirke ;Marcussen & Søn;Mogens Svenning.;8;1;Pedal;56.1329687;10.5095399;Helgenæs Kirke, Brøsbjergvej, Syddjurs Municipality, Denmark
1997;Helligsø Kirke ;Bruno Christensen & Sønner;Gert Madsen.;11;2;Pedal;56.7016888;8.3471392;Helligsø Kirke, Vestervej, Thisted Municipality, Denmark
1972;Hem Kirke ;Jydsk Orgelbyggeri;1972: Vinther & Roldsgaard. 1996: Vilhelmsen, Marxen og Bech-Jensen.;5;1;Pedal;56.5943908;8.9592947;Hem Kirke, Krarupvej, Hem, Denmark
1983;Herlufsholm Kirke ;Th. Frobenius & Sønner;Preben Thorsen [Se noter];32;3;Pedal;55.2460393;11.748899;Herlufsholm Kirke, Herlufsholm Alle, 4700 Næstved, Denmark
1997;Hirtshals, Emmersbæk Kirke ;Bruno Christensen & Sønner;Friis & Moltke.;12;2;Pedal;NA;NA;NA
1986;Hjerpsted Kirke ;Jydsk Orgelbyggeri;;6;1;Pedal;55.0200544;8.6491832;Hjerpsted Kirke, Vestkystvej, Tønder Municipality, Denmark
1957;Holstebro Kirke ;Th. Frobenius & Co;Mogens Koch.;45;4;Pedal;56.3592901;8.6163081;Holstebro Kirke, Kirkepladsen, 7500 Holstebro, Denmark
1974;Hornbæk Kirke ;P. Bruhn & Søn;;11;2;Pedal;56.0913552;12.4584349;Hornbæk Kirke, Kirkevej, 3100 Hornbæk, Denmark
1997;Humlebæk Kirke ;Carsten Lund;Orgelbyggeriet.;24;3;Pedal;55.9716685;12.5421015;Humlebæk Kirke, Gammel Strandvej, 3060 Espergærde, Denmark
1997;Hundborg Kirke ;Th. Frobenius & Sønner;Arkitekterne, Thisted.;12;2;Pedal;56.9273518;8.5078655;Hundborg Kirke, Vorupørvej, 7752 Snedsted, Denmark
1997;Hurup Kirke ;Bruno Christensen & Sønner;Poul Brøgger.;22;2;Pedal;56.7542908;8.425812;Hurup Kirke, Brandsholmvej, 7760 Hurup, Denmark
1997;Højst Kirke ;P.G. Andersen & Bruhn;;13;2;Pedal;55.0011509;9.0400872;Højst Kirke, Klodsgade, Øster Højst, Denmark
1963;Hørmested Kirke ;Jydsk Orgelbyggeri;;5;1;Anhangspedal;57.4612981;10.2472175;Hørmested Kirke, Hørmestedvej, 9870 Sindal, Denmark
1997;Karlslunde Kirke ;Jensen & Thomsen;Rolf Graae.;22;2;Pedal;55.5713348;12.2225648;Karlslunde Kirke, Hovedgaden, 2690 Karlslunde, Denmark
1869;Kerteminde Valgmenighedskirke ;J.A. Demant;1869: ?. 1927-1928: Knud Lehn Petersen. [Iflg. medd. fra tegnestuen].;7;1;Pedal;NA;NA;NA
1851;Krønge Kirke ;Jens Gregersen;;5;1;(Intet Pedal);54.727463;11.5105356;Krønge Kirke, Krøngevej, 4960 Holeby, Denmark
1984;København, Hans Egedes Kirke;Gunnar Fabricius Husted;;22;2;Pedal;55.7077938;12.586988;Hans Egedes Kirke, Vardegade, 2150 Nordhavn, Denmark
1870;Lidemark Kirke ;Knud Olsen;;6;1;(Intet Pedal);55.4369587;12.054648;Lidemark Kirke, Lidemarksvej, 4632 Bjæverskov, Denmark
1997;Lindknud Kirke ;P.G. Andersen & Bruhn;;11;2;Pedal;55.5645887;9.0204488;Lindknud Kirke, Okslundvej, Lindknud, Denmark
1982;Lønne Kirke ;Jydsk Orgelbyggeri;;6;1;Pedal;55.7893756;8.2388091;Lønne Kirke, Vesterhavsvej, 6830 Nørre, Denmark
1975;Låstrup Kirke ;Jydsk Orgelbyggeri;Edv. Thomsen.;5;1;Pedal;56.5785523;9.3829447;Låstrup Kirke, Låstrupvej, 8832 Skals, Denmark
1970;Magleby Kirke ;Th. Frobenius & Sønner;;10;2;Pedal;54.9842912;12.484253;Magleby Kirke, Klintevej, 4791 Borre, Denmark
1876;Magleby Kirke ;J.A. Demant;;5;1;Anhangspedal;54.9842912;12.484253;Magleby Kirke, Klintevej, 4791 Borre, Denmark
1979;Melby Kirke ;Gunnar Fabricius Husted;Jørn Blinkenberg Willadsen.;15;2;Pedal;55.9956413;11.9691407;Melby Kirke, Tollerupvej, 3370 Melby, Denmark
1999;Mesing Kirke ;Marcussen & Søn;Birch & Svenning.;6;1;Pedal;56.0756931;9.9390922;Mesing Kirke, Præstevejen, 8660 Skanderborg, Denmark
1844;Nordby Kirke ;Marcussen & Reuter;;12;1;Pedal;55.951451;10.5465318;Nordby Kirke, Møgelskårvejen, Samsø Municipality, Denmark
1998;Nærum Kirke ;P.G. Andersen & Bruhn;CUBO arkitekter v/ Lars Thiis.;27;3;Pedal;55.821424;12.5363405;Nærum Kirke, Kirkeåsen, 2850 Nærum, Denmark
1850 (?);Næstved, Sct. Mortens Kirke;Frederik Hoffmann Ramus;;4;1;(Intet Pedal);NA;NA;NA
1948;Nørhå Kirke ;Th. Frobenius & Co;;5;1;(Intet Pedal);56.8993416;8.4455738;Nørhå Kirke, Morten Nielsens Vej, Thisted Municipality, Denmark
1989;Nørlem Kirke ;Bruno Christensen & Sønner;;10;2;Pedal;56.5545762;8.3240592;Nørlem Kirke, Kabbelvej, 7620 Lemvig, Denmark
1957;Nørre Gørding Kirke ;Th. Frobenius & Co;> Søren Jensen. [Se noter].;6;1;Pedal;56.3385816;8.3032909;Nørre Gørding Kirke, Fjordvejen, 7570 Vemb, Denmark
1996;Nørre Kirkeby Kirke ;Gunnar Fabricius Husted;;7;1;Pedal;54.8778194;11.8637799;Nørre Kirkeby Kirke, Nørre Kirkebyvej, 4840 Nørre, Denmark
1970;Nørresundby Kirke ;I. Starup & Søn;Preben Thorsen.;24;2;Pedal;57.0607495;9.9196736;Nørresundby Kirke, Sankt Peders Gade, 9400 Nørresundby, Denmark
1972;Odense, Ansgars Kirke ;Marcussen & Søn;Knud, Erik og Ebbe Lehn Petersen. [Iflg. meddelelse fra arkitektfirmaet].;29;3;Pedal;55.3914241;10.3781291;Ansgars Kirke, Søndre Boulevard, 5000 Odense C, Denmark
1963;Odense, Bolbro Kirke ;Marcussen & Søn;Erik og Ebbe Lehn Petersen. [Iflg. meddelelse fra arkitektfirmaet]. ;16;2;Pedal;55.3930995;10.3515183;Bolbro Kirke, Roesskovsvej, 5200 Odense V, Denmark
1958;Odense, Fredens Kirke ;Marcussen & Søn;Esben Klint.;29;3;Pedal;55.4134496;10.3952595;Fredens Kirke, Skibhusvej, 5000 Odense C, Denmark
1954;Odense, Hans Tausens Kirke ;Marcussen & Søn;Erik Lehn Petersen. [Iflg. medd. fra tegnestuen].;13;2;Pedal;55.3985243;10.3633843;Hans Tausens Kirke, Langesøstien, 5000 Odense C, Denmark
1965;Ørum Kirke ;Marcussen & Søn;1965: Ebbe og Erik Lehn Petersen [Iflg. kirkeblad fra Odense, Munkebjerg Kirke 1965]. 2003: Ebbe Marxen. [Iflg. meddelelse 2004 fra Th. Frobenius & Sønner].;18;2;Pedal;55.7388409;9.7448411;Ørum Kirke, Kirkebuen, 8721 Daugård, Denmark
1953;Odense, Thomas Kingos Kirke ;Marcussen & Søn;1925: Vilhelm Petersen. 1953: Axel Jacobsen.;34;3;Pedal;55.3854765;10.3874704;Thomas Kingos Kirke, Bülowsvej, 5230 Odense M, Denmark
1975;Odense, Vollsmose Kirke ;Marcussen & Søn;Arkitektfirma Stærmose. (Kirkens arkitekt). [Iflg. medd. fra orgelbyggeriet].;21;2;Pedal;55.4072762;10.4421141;Vollsmose Kirke, Egeparken, 5240 Odense NØ, Denmark
1965;Odense, Vor Frelsers Kirke ;I. Starup & Søn;Knud, Erik og Ebbe Lehn Petersen. [Iflg. medd. fra tegnestuen]. (Arkitekt 2001: Ebbe Lehn Petersen [iflg. medd. fra orgelbyggeriet]).;17;2;Pedal;55.3959282;10.4230111;Vor Frelsers Kirke, Ejbygade, 5230 Odense M, Denmark
1989;Outrup Kirke ;Bruno Christensen & Sønner;Arkitekterne, Thisted.;7;1;Pedal;55.7228823;8.3424107;Outrup Kirke, Birkegade, 6855 Outrup, Denmark
1997;Radsted Kirke ;Bruno Christensen & Sønner;Ebbe Lehn Petersen.;12;2;Pedal;54.7899203;11.6885004;Radsted Kirke, Østerbyvej, 4990 Sakskøbing, Denmark
1972;Ramløse Kirke ;Th. Frobenius & Sønner;;11;2;Pedal;56.0159611;12.1116782;Ramløse Kirke, Frederiksværkvej, 3220 Tisvildeleje, Denmark
1979;Rudkøbing Kirke ;Fyns Orgelbyggeri;;19;2;Pedal;54.9368614;10.7095528;Rudkøbing Kirke, Kirkepladsen, 5900 Rudkøbing, Denmark
1996;Rødding Kirke ;Marcussen & Søn;Arkitektfirma Brøgger. [Iflg. medd. fra orgelbyggeriet 1997].;6;1;Pedal;56.5008664;9.5036204;Rødding Kirke, Enghavevej, Rødding, Denmark
1974;Røsnæs Kirke ;Conrad Christiansen;;6;1;Pedal;55.7326182;10.9601507;Røsnæs Kirke, Røsnæsvej, Ulstrup, Denmark
1893;Sall Kirke ;Frederik Nielsen;;4;1;(Intet Pedal);56.2787637;9.8250359;Sall Kirke, Borgergade, 8881 Thorsø, Denmark
1966;Sejerø Kirke ;Poul-Gerhard Andersen's Orgelbyggeri;Jan Gehl.;5;1;(Intet Pedal);55.88182;11.1431104;Sejerø Kirke, Sejerbyvej, 4592 Sejerø, Denmark
1972;Serridslev Kirke ;Bruno Christensen;;7;1;Pedal;55.8988713;9.8948064;Serridslev Kirke, Serridslevvej, Horsens, Denmark
1962;Skagen Kirke ;Marcussen & Søn;;31;3;Pedal;57.7214333;10.5847255;Skagen Church, Ved Kirken, 9990 Skagen, Denmark
1977;Skivum Kirke ;Jydsk Orgelbyggeri;;6;1;Pedal;56.8656589;9.5893113;Skivum Kirke, Skivumvej, Skivum, Denmark
1965;Skærum Kirke ;Th. Frobenius & Co;;6;1;Pedal;57.4256255;10.3536278;Skærum Kirke, Slustrupvej, Frederikshavn Municipality, Denmark
1977;Snoldelev Kirke ;Gunnar Fabricius Husted;Orgelbyggeriet.;11;2;Pedal;55.5711298;12.1318122;Snoldelev Kirke, Snoldelev Bygade, 4621 Gadstrup, Denmark
1972;Strelluf Kirke ;Th. Frobenius & Sønner;;5;1;(Intet Pedal);NA;NA;NA
1981;Sæby Kirke ;P. Bruhn & Søn;;4;1;Anhangspedal;57.3331953;10.5287049;Sankt Mariæ Kirke, Strandgade, 9300 Sæby, Denmark
1969;Søborg Kirke ;Th. Frobenius & Sønner;;24;2;Pedal;56.0863037;12.317685;Søborg Kirke, Bygaden, 3250 Gilleleje, Denmark
1953;Søby Kirke ;Th. Frobenius & Co;;7;1;Pedal;54.9385696;10.2568185;Søby Kirke, Langebro, 5985 Søby, Denmark
1962;Sønder Vilstrup Kirke ;Brdr. Bruhn;;9;2;Pedal;55.5546835;9.5491989;Sønder Vilstrup Kirke, Hulskovvej, Kolding, Denmark
1962;Sønderborg, Sct. Marie Kirke ;Marcussen & Søn;;39;3;Pedal;NA;NA;NA
1996;Thorsø Kirke ;Bruno Christensen & Sønner;Gert Madsen.;7;1;Pedal;56.2997572;9.7954022;Thorsø Kirke, Grøndalslundvej, 8881 Thorsø, Denmark
1997;Tilsted Kirke ;Bruno Christensen & Sønner;Jørgen Raaby's tegnestue.;12;2;Pedal;56.9478907;8.6427208;Tilsted Kirke, Vuskærvej, 7700 Thisted, Denmark
1996;Tjæreborg Kirke ;Anders Havgaard Rasmussen;Rolf Graae. Farvesætning: Konservator Bent Jacobsen, Faaborg. [Iflg. medd. fra orgelbyggeriet 1997].;16;2;Pedal;55.462305;8.583338;Tjæreborg Kirke, Skolevej, 6731 Tjæreborg, Denmark
1970;Tjørring Kirke ;Jensen & Thomsen;;5;1;Pedal;56.1684135;8.913439;Tjørring Kirke, Ørnhovedvej, Herning Municipality, Denmark
1997;Tranum Kirke ;Gunnar Fabricius Husted;Øjvind Jørgensen.;15;2;Pedal;57.1326575;9.4699585;Tranum Kirke, Tranumvej, Tranum, Denmark
1979;Troldhede Kirke ;Bruno Christensen & Sønner;;12;2;Pedal;55.9912221;8.7473266;Troldhede Kirke, Kirkegade, Troldhede, Denmark
1944;Tryggelev Kirke ;Th. Frobenius & Co;Fin Ditlevsen.;5;1;(Intet Pedal);54.8038833;10.7021551;Tryggelev Kirke, Tryggelev, 5932 Humble, Denmark
1973;Ubberup Valgmenighedskirke ;Gunnar Fabricius Husted;;6;1;Pedal;55.6712189;11.1732861;Bethlehemskirken, Tingvejen, Kalundborg Municipality, Denmark
2008;Ugerløse Kirke ;Gunnar Fabricius Husted;2008: Søren Rassov. Kirkemaler 2008 Paul Andersen [Se noter].;20;2;Pedal;55.5854008;11.6546989;Ugerløse kirke, Ugerløse, Region Zealand, Denmark
1888;Ulkebøl Kirke ;Marcussen & Søn;;20;2;Pedal;54.9262327;9.8306842;Ulkebøl Kirke, Kirkevej, Sønderborg, Denmark
1983;Underup Kirke ;Bruno Christensen & Sønner;;6;1;Pedal;55.9437147;9.6963485;Underup Kirke, Bygaden, Horsens, Denmark
1976;Vallensbæk Kirke ;Th. Frobenius & Sønner;.;11;2;Pedal;55.6378735;12.3654203;Tjørneagergård, Vallensbæk Kirke, Kirkebakke Alle, 2625 Vallensbæk, Denmark
1958;Valsgård Kirke ;Th. Frobenius & Co;;5;1;Pedal;56.6728237;9.8500765;Valsgård Kirke, Hovedgaden, Valsgård, Denmark
1997;Valsølille Kirke ;P.G. Andersen & Bruhn;Per Axelsens tegnestue.;10;2;Pedal;55.5213337;11.8338632;Valsølille Kirke, Valsømaglevej, 4174 Jystrup, Denmark
1892;Varnæs Kirke ;Marcussen & Søn;;10;2;Pedal;55.0095082;9.5716791;Varnæs Kirke, Varnæsvej, Varnæs, Denmark
1971;Vedbæk Kirke ;Th. Frobenius & Sønner;Peter Paludan.;17;3;Pedal;55.8392798;12.5662748;Vedbæk Kirke, Enrumvej, 2942 Skodsborg, Denmark
1998;Vejby Kirke ;P.G. Andersen & Bruhn;;24;3;Pedal;56.0642806;12.1408342;Vejby Kirke, Kirkebakken, 3210 Vejby, Denmark
1904 (?);Vestenskov Kirke;Gebr. Rieger;Orgelbyggeriet.;6;1;(Intet Pedal);54.7892727;11.093882;Vestenskov Kirke, Vestenskov Kirkevej, Vestenskov, Denmark
1964;Vester Nebel Kirke ;Th. Frobenius & Co;;5;1;Pedal;55.5412518;8.5425798;Vester Nebel Kirke, Stokbrovej, Vester Nebel, Denmark
1997;Vildbjerg Kirke ;P.G. Andersen & Bruhn;;16;2;Pedal;56.1984401;8.7668396;Vildbjerg Kirke, Kirkegade, 7480 Vildbjerg, Denmark
1969;Vitved Kirke ;Jensen & Thomsen;;5;1;Pedal;56.0487252;10.0413768;Vitved Kirke, Søgårdsvej, 8362 Hørning, Denmark
1899;Vonsbæk Kirke ;Marcussen & Søn;;9;1;Pedal;55.2759096;9.6013016;Vonsbæk Kirke, Præsteskoven, Haderslev Municipality, Denmark
1997;Øde Førslev Kirke ;Gunnar Fabricius Husted;Søren Rassov.;10;2;Pedal;55.3580544;11.9049326;Øde Førslev Kirke, Førslev Kirkestræde, Førslev, Denmark
1987;Ørslev Kirke ;Th. Frobenius & Sønner;;9;2;Pedal;55.2239442;11.40575;Ørslev Kirke, Ørslev Kirkevej, Slagelse Municipality, Denmark
1854;Øster Jølby Kirke ;Jens Gregersen;;4;1;(Intet Pedal);56.8253143;8.696754;Øster Jølby Kirke, Kresten Kolds Vej, 7950 Erslev, Denmark
1969;Østervrå Kirke ;Brdr. Bruhn;1969: Rolf Graae. [jfr. Dansk Orgelaarbog, bd. 4, 1987-1988-1989, [1991], s. 14]. 1996: Poul Brøgger. [Iflg. medd. fra orgelbyggeriet 1997].;16;2;Pedal;57.3377764;10.2287248;Østervrå Kirke, Vrængmosevej, 9750 Østervrå, Denmark
1956;Aabenraa, Sct. Nicolai Kirke ;Marcussen & Søn;Mogens Koch [Se noter].;31;3;Pedal;NA;NA;NA
1960;Aarhus, Sct. Pauls Kirke ;Marcussen & Søn;;39;3;Pedal;NA;NA;NA
1996;Aller Kirke ;Marcussen & Søn;;9;1;Pedal;55.3614935;9.5316767;Aller Kirke, Kær Møllevej, Kolding Municipality, Denmark
1995;Ansager Kirke ;Bruno Christensen & Sønner;Peter B. Villadsen;13;2;Pedal;55.7046318;8.7533123;Ansager Kirke, Østergade, 6823 Ansager, Denmark
1868;Ansager Kirke;J.A. Demant;;7;1;(Intet Pedal);55.7046318;8.7533123;Ansager Kirke, Østergade, 6823 Ansager, Denmark
1978;Augustenborg Slotskirke ;Marcussen & Søn;;26;2;Pedal;54.9449278;9.8666479;Augustenborg Slotskirke, Augustenborg Slot, Augustenborg, Denmark
1955;Bagenkop Kirke ;Th. Frobenius & Co;Tyge Hvass;12;2;Pedal;54.7507496;10.6792288;Bagenkop Kirke, Kirkevej, 5935 Bagenkop, Denmark
1880;Ballum Kirke ;Marcussen & Søn;;9;1;Pedal;55.0903597;8.6582857;Ballum Kirke, Vesterende, Tønder Municipality, Denmark
1973;Bellinge Kirke ;Marcussen & Søn;(1998) Ebbe Lehn Petersen.;11;2;Pedal;55.3333844;10.3135732;Bellinge Kirke, Kirkelundvej, 5250 Odense SV, Denmark
1996;Bjerning Kirke ;Marcussen & Søn;;10;2;Pedal;55.3048595;9.4929884;Bjerning Kirke, Bjerning Kirkevej, Haderslev Municipality, Denmark
1967;Broager Kirke ;Marcussen & Søn;Rolf Graae [NB: ældre facade genanvendt].;18;2;Pedal;54.8915743;9.6742369;Broager Kirke, Parkvej, 6310 Broager, Denmark
1975;Brovst Kirke ;Gunnar Fabricius Husted;;12;2;Pedal;57.0892098;9.5281398;Brovst Kirke, Månevejen, 9460 Brovst, Denmark
1980;Bråby Kirke ;Jensen & Thomsen;;9;2;Pedal;55.2974688;11.9447378;Braby Church, Bråby Bygade, 4690 Haslev, Denmark
1750 (?);Børglumkloster Kirke ;Anonym Mester;;13;1;Pedal;NA;NA;NA
1901;Bågø Kirke ;Frederik Nielsen;.;5;1;(Intet Pedal);55.3156585;9.8062428;Baagø Kirke, Sommerodden, Assens Municipality, Denmark
1996;Dalby Kirke ;Marcussen & Søn;> Ebbe Lehn Petersen;10;2;Pedal;55.4653735;9.5039428;Dalby Kirke, Dalbyvej, 6000 Kolding, Denmark
1980;Dalbyneder Kirke ;Jydsk Orgelbyggeri;;7;1;Pedal;56.6323096;10.2215098;Dalbyneder Kirke, Kirkebakken, 8970 Havndal, Denmark
1976;Dybbøl Kirke ;Marcussen & Søn;;19;2;Pedal;54.9198829;9.7238027;Dybbøl Kirke, Bøffelkobbelvej, Dybbøl, Denmark
1952;Egtved Kirke ;Marcussen & Søn;1952: ?. 1997: Mogens Svenning [iflg. Vejle Amts Folkeblad 25. marts 1997].;17;2;Pedal;55.6199235;9.3006667;Egtved Kirke, Kirkevej, Egtved, Denmark
1981;Egå Kirke ;Carsten Lund;;15;2;Pedal;56.2165591;10.2653159;Egå Kirke, Egå Mosevej, 8520 Lystrup, Denmark
1995;Ejby Kirke ;Gunnar Fabricius Husted;Rolf Graae;14;2;Pedal;55.3959282;10.4230111;Vor Frelsers Kirke, Ejbygade, 5230 Odense M, Denmark
1973;Elling Kirke ;I. Starup & Søn;;12;2;Pedal;57.4738931;10.4842102;Elling Kirke, Tuenvej, 9970 Strandby, Denmark
1994;Elsted Kirke ;Th. Frobenius & Sønner;Inger & Johannes Exner.;12;2;Pedal;56.2456172;10.2292633;Elsted Kirke, Elsted Kirkeplads, 8520 Lystrup, Denmark
1992;Emmerlev Kirke ;Bruno Christensen & Sønner;Tegnestuen v/Gert Madsen, Hadsten. [Iflg. meddelelse fra orgelbyggeriet 1993].;11;2;Pedal;54.9893954;8.6952337;Emmerlev Kirke, 6280 Højer, Denmark
1973;Esbønderup Kirke ;Jensen & Thomsen;Rolf Graae.;11;2;Pedal;56.052694700000004;12.3438004;Esbønderup Kirke, Bagerstræde, Esbønderup, Denmark
1988;Farup Kirke ;P. Bruhn & Søn;Orgelbyggeriet. [Se noter].;14;2;Pedal;56.5425134;9.8583245;Fårup Kirke, Gammel Randersvej, 8990 Fårup, Denmark
1984;Fensmark Kirke ;Jensen & Thomsen;Knud Toftvad.;10;2;Pedal;55.2810377;11.8053636;Fensmark Kirke, Chr Winthersvej, 4684 Holmegaard, Denmark
1980;Frederiksværk Kirke ;Poul-Gerhard Andersen's Orgelbyggeri;;27;3;Pedal;55.9729918;12.0224415;Frederiksværk Kirke, Kirkegade, 3300 Frederiksværk, Denmark
1960;Freerslev Kirke ;Marcussen & Søn;;7;1;Pedal;55.3254406;12.0160443;Freerslev Kirke, Freerslev Annex, 4690 Haslev, Denmark
1983;Funder Kirke ;Marcussen & Søn;;12;2;Pedal;56.1557881;9.4395553;Funder Kirke, Funder Kirkevej, Funder Kirkeby, Denmark
1954;Hjørring Baptistkirke ;A.C. Zachariasen & Søn;;6;1;(Intet Pedal);57.4615256;9.985247;Hjørring Baptistkirke, Sanct Olai Plads, 9800 Hjørring, Denmark
1996;Føllenslev Kirke ;Bruno Christensen & Sønner;Ebbe Lehn Petersen.;13;2;Pedal;55.7244162;11.3553764;Føllenslev Kirke, Kirkemosevej, 4460 Snertinge, Denmark
1976;Fårup Kirke ;I. Starup & Søn;;9;2;Pedal;56.5425134;9.8583245;Fårup Kirke, Gammel Randersvej, 8990 Fårup, Denmark
1968;Gettrup Kirke ;Th. Frobenius & Sønner;;11;2;Pedal;56.7214651;8.3558937;Gettrup Kirke, Ydbyvej, 7760 Hurup, Denmark
1968;Gimsing Kirke ;Th. Frobenius & Sønner;Poul Hansen & Ib Lydholm.;8;1;Pedal;56.4756117;8.6061472;Gimsing Kirke, Movstgårde, Hjermvej, 7600 Struer, Denmark
1987;Give Kirke ;Marcussen & Søn;;22;2;Pedal;55.8447847;9.2405033;Give Kirke, Enghavevej, 7323 Give, Denmark
1995;Grønholt Kirke ;Carsten Lund;Carsten Lund.;15;2;Pedal;55.9457344;12.3851664;Grønholt Kirke, Grønholtvej, 3480 Fredensborg, Denmark
1923;Gudumholm Kirke ;Th. Frobenius & Co;;6;1;(Intet Pedal);56.9622165;10.1005285;Gudumholm Kirke, Aagade, Gudumholm, Denmark
1978;Hals Kirke ;Bruno Christensen & Sønner;;14;2;Pedal;56.9980178;10.3111958;Hals Kirke, Sophie Hedvigs Vej, 9370 Hals, Denmark
1996;Hammelev Kirke ;Marcussen & Søn;;12;2;Pedal;55.2445034;9.3888762;Hammelev Kirke, Kirkestræde, Hammelev, Denmark
1971;Hammer Kirke ;Jydsk Orgelbyggeri;Vinther & Roldsgaard.;4;1;Anhangspedal;57.1509232;10.0119532;Hammer Kirke, Hammerkilen, Aalborg Municipality, Denmark
1920;Hellebæk Kirke ;Chr. Winther & Th. Frobenius;;8;2;Pedal;56.0747546;12.5477259;Hellebæk Kirke, Riffsvej, 3150 Hellebæk, Denmark
1967;Hellum Kirke ;Jydsk Orgelbyggeri;;5;1;Pedal;57.2615364;10.1609807;Hellum Kirke, Kræmmergårdsvej, Brønderslev Municipality, Denmark
1998;Helsingør, Sct. Mariæ Kirke ;Marcussen & Søn;;30;3;Pedal;56.0370246;12.6126858;Sankt Mariæ Kirke og Vor Frue Kloster, Hestemøllestræde, 3000 Helsingør, Denmark
1968;Hem Kirke ;Jydsk Orgelbyggeri;;6;1;Pedal;56.5943908;8.9592947;Hem Kirke, Krarupvej, Hem, Denmark
1963;Herlev Kirke ;I. Starup & Søn;Aage Herløw.;10;2;Pedal;55.7246576;12.4378555;Herlev Kirke, Herlev Bygade, 2730 Herlev, Denmark
1971;Herlev, Lindehøj Kirke ;P. Bruhn;Holger Jensen.;14;2;Pedal;55.7338698;12.419936;Lindehøj Kirke, Tvedvangen, 2730 Herlev, Denmark
1946;Hampen Kirke ;Th. Frobenius & Co;;7;1;Pedal;56.0100168;9.354127;Hampen Kirke, Kirkebakken, 7362 Hampen, Denmark
1987;Hillerslev Kirke ;Th. Frobenius & Sønner;Lars Mindedal. Farvekonsulent: Jens Johansen.;11;2;Pedal;55.2088001;10.3448859;Hillerslev Kirke, Kirkegyden, Faaborg-Midtfyn Municipality, Denmark
1972;Hillerød, Frederiksborg Slotskirke ;Poul-Gerhard Andersen's Orgelbyggeri;> Se noter.;38;3;Pedal;55.9350889;12.3007903;Frederiksborg Slotskirke, Indre Slotsgård, 3400 Hillerød, Denmark
1864;Hillerød, Frederiksborg Slotskirke;Marcussen & Søn;;25;2;Pedal;55.9350889;12.3007903;Frederiksborg Slotskirke, Indre Slotsgård, 3400 Hillerød, Denmark
1976;Hjortlund Kirke ;P. Bruhn & Søn;Arkitekter: Rolf Graae og Richard Aas. [Ældre facade]. Se noter.;7;1;(Intet Pedal);55.403899;8.803172;Hjortlund Kirke, Hjortlundvej, Esbjerg Municipality, Denmark
1990;Holbæk Kirke;Carsten Lund;Orgelbyggeriet.;6;1;(Intet Pedal);56.5526856;10.3003584;Holbæk Kirke, Kastanievej, 8950 Ørsted, Denmark
1994;Holevad Kirke ;Bruno Christensen & Sønner;Orgelbyggeriet. Typeorgel. [Se noter].;5;1;Pedal;55.3075727;9.9469812;Holevad Kirke, Mygindvej, 5610 Assens, Denmark
1995;Houlbjerg Kirke ;Marcussen & Søn;;10;2;Pedal;56.3473427;9.8760317;Houlbjerg Kirke, Villungsvej, Houlbjerg, Denmark
1856;Husby Kirke ;Marcussen & Søn;;9;1;Anhangspedal;56.2820216;8.1761236;Husby Kirke, Græmvej, 6990 Ulfborg, Denmark
1996;Hylleholt Kirke ;P.G. Andersen & Bruhn;;16;2;Pedal;55.2170131;12.1648579;Hylleholt Kirke, Hovedgaden, 4654 Faxe, Denmark
1868;Høm Kirke ;Knud Olsen;;4;1;(Intet Pedal);55.4111909;11.7803359;Toftegård, Høm Kirke, Englerupvej, 4100 Ringsted, Denmark
1982;Hørning Kirke ;Bruno Christensen & Sønner;Bent Meyer. [Se noter].;14;2;Pedal;56.0854607;10.0386711;Hørning Kirke, Kirkevej, 8362 Hørning, Denmark
1974;Håsum Kirke ;Jensen & Thomsen;;5;1;Pedal;56.5794547;8.8472559;Håsum Kirke, Klokkehøjen, 7860 Spøttrup, Denmark
1890;Dølby Kirke ;Marcussen & Søn;;6;1;Anhangspedal;56.607914;8.9833143;Dølby Kirke, Rudemøllevej, Hem, Denmark
1996;Jelstrup Kirke ;Jensen & Thomsen;Orgelbyggeriet. [Iflg. medd. fra dette 8. marts 1996].;11;2;Pedal;57.4269333;9.8178894;Jelstrup Kirke, Jelstrupvej, Hundelev, Denmark
1998;Kirkeby Kirke ;Marcussen & Søn;> Lars Mindedal.;16;2;Pedal;55.1137638;10.5288828;Kirkeby Kirke, Kirkevej, 5771 Stenstrup, Denmark
1953;Kalvslund Kirke ;Marcussen & Søn;;5;1;(Intet Pedal);55.3875225;8.8768692;Kalvslund Kirke, Østervej, Esbjerg Municipality, Denmark
1850;Karise Kirke ;Marcussen & Søn;;14;2;Pedal;55.305661;12.2093086;Karise Kirke, Køgevej, 4653 Karise, Denmark
1916;Keldby Kirke ;A.H. Busch & Sønner;;6;1;Anhangspedal;54.9910208;12.343986;Keldby Kirke, Præstegårdsstræde, Vordingborg Municipality, Denmark
1994;Kindertofte Kirke ;Jensen & Thomsen;;5;1;Anhangspedal;55.4322913;11.4711809;Kindertofte Kirke, Ølsmosevej, Slagelse Municipality, Denmark
1872;Kirkerup Kirke ;Knud Olsen;;5;1;(Intet Pedal);55.7217089;12.1591833;Kirkerup Kirke, Roskilde, Region Zealand, Denmark
1990;Kolding, Sct. Nicolai Kirke;Bruno Christensen & Sønner;;4;1;Anhangspedal;NA;NA;NA
1960;Kongens Lyngby Kirke ;Th. Frobenius & Co;Fin Ditlevsen i samarbejde med Rich. Jessen.;20;3;Pedal;55.773475;12.5002735;Lyngby Kirke, Lyngby Hovedgade, 2800 Kongens Lyngby, Denmark
1980;Løgstør Kirke;Fyns Orgelbyggeri;;4;1;(Intet Pedal);56.9676336;9.2563805;Løgstør Kirke, Blindebomsgade, 9670 Løgstør, Denmark
1962;Korsør, Sct. Povls Kirke ;Th. Frobenius & Co;Holger Jensen (1962). Per Axelsen (2003).;26;3;Pedal;NA;NA;NA
1995;Kragelund Kirke ;Marcussen & Søn;Birch & Svenning. Gitterudsmykning: Erik Heide.;9;2;Pedal;56.1943528;9.4122416;Kragelund Kirke, Kragelundvej, Kragelund, Denmark
1848;Krogsbølle Kirke ;P.U.F. Demant;;5;1;(Intet Pedal);55.5746662;10.3709831;Krogsbølle Kirke, Lillebro, 5450 Otterup, Denmark
1944;Kvissel Kirke ;Th. Frobenius & Co;;5;1;Anhangspedal;57.4707828;10.4094166;Kvissel Kirke, Mejlingvej, Kvissel, Denmark
1971;København, Filips Kirke;Poul-Gerhard Andersen's Orgelbyggeri;;21;2;Pedal;55.6555994;12.6177509;Filips Kirke, Kastrupvej, 2300 København S, Denmark
1963;København, Frederiks Kirke;Marcussen & Søn;Rolf Graae.;51;4;Pedal;55.6849742;12.5895519;Marble Church, Frederiksgade, 1265 København K, Denmark
1947;København, Frederiksberg Kirke;Marcussen & Søn;;34;3;Pedal;NA;NA;NA
1973;København, De Gamles Bys Kirke;I. Starup & Søn;;4;1;Anhangspedal;55.694891;12.5581171;De Gamles Bys Kirke, Edith Rodes Vej, 2200 København N, Denmark
1990;København, Lindevang Kirke;Marcussen & Søn;;37;3;Pedal;NA;NA;NA
1994;København, Lundehus Kirke;Th. Frobenius & Sønner;Holger Jensen.;21;2;Pedal;55.717541;12.5558261;Lundehus Kirke, Emdrup Vænge, 2900 Hellerup, Denmark
1956;København, Sct. Andreas Kirke;Th. Frobenius & Co;;40;3;Pedal;NA;NA;NA
1953;København, Sct. Jakobs Kirke;Th. Frobenius & Co;Aksel Feldinger [Hertz & al. 1987].;37;3;Pedal;NA;NA;NA
1953;København, Sct. Petri Kirke;Walcker;;9;2;Pedal;NA;NA;NA
1983;København, Sct. Stefans Kirke;Carsten Lund;Orgelbyggeriet.;24;3;Pedal;NA;NA;NA
1996;København, Sions Kirke;Carsten Lund;Rolf Graae.;29;3;Pedal;55.7113333;12.5781978;Sions Kirke, Østerbrogade, 2100 København Ø, Denmark
1956;København, Trinitatis Kirke;Marcussen & Søn;;53;3;Pedal;55.6815725;12.576134;Trinity Church, Landemærket, 1125 Copenhagen, Denmark
1990;København, Vestre Fængsels Kirke;Jensen & Thomsen;;17;2;Pedal;55.661743;12.5370564;Vestre Fængsels Kirke, Vigerslev Allé, 1765 København V, Denmark
1898;Lading Kirke ;Frederik Nielsen;;4;1;(Intet Pedal);56.2213406;9.9762002;Lading Kirke, Viborgvej, 8471 Sabro, Denmark
1963;Lemvig Valgmenighedskirke ;Th. Frobenius & Co;;6;1;Pedal;56.5480546;8.3031329;Lemvig Valgmenighedskirke, Kirkevej, 7620 Lemvig, Denmark
1972;Viborg, Søndre Sogns Kirke ;Poul-Gerhard Andersen's Orgelbyggeri;;4;1;(Intet Pedal);NA;NA;NA
1970;Lundtofte Kirke ;Th. Frobenius & Sønner;;21;3;Pedal;55.79398;12.5187248;Lundtofte Kirke, Lundtofte Kirkevej, 2800 Kongens Lyngby, Denmark
1983;Lundum Kirke ;Th. Frobenius & Sønner;Rolf Graae.;5;1;Anhangspedal;55.9283099;9.7764338;Lundum Kirke, Pontoppidansvej, 8752 Østbirk, Denmark
1964;Lydum Kirke ;Th. Frobenius & Co;Rolf Graae og Richard Aas.;4;1;Anhangspedal;55.7956069;8.3611341;Lydum Kirke, Lydumvej, Varde Municipality, Denmark
1996;Lyngby Kirke ;Marcussen & Søn;Arkitektfirma Brøgger. [Iflg. medd. fra orgelbyggeriet 1997].;6;1;Pedal;55.773475;12.5002735;Lyngby Kirke, Lyngby Hovedgade, 2800 Kongens Lyngby, Denmark
1988;Lynge Kirke ;Th. Frobenius & Sønner;Rolf Graae.;20;3;Pedal;55.3996933;11.5646581;Lynge Kirke, Lyngevej, 4180 Sorø, Denmark
1967;Lyngs Kirke ;Jydsk Orgelbyggeri;;5;1;Pedal;56.6748426;8.4534539;Lyngs Kirke, Lyngs Kirkevej, Lyngs, Denmark
1996;Lynæs Kirke ;Gunnar Fabricius Husted;Rolf Graae. Farvesætning: Kunstmaler Mogens Jørgensen. Maler: Leo Christiansen.;20;2;Pedal;55.9511106;11.8594382;Lynæs Kirke, Kirkebakken, 3390 Hundested, Denmark
1898;Løgstør Frimenighedskirke ;Joh.P. Andresen & Co;;5;1;(Intet Pedal);56.9675433;9.2498812;Løgstør Frimenighedskirke, Fredensgade, 9670 Løgstør, Denmark
1969;Løgumkloster Kirke ;Marcussen & Søn;> 2015: Jørgen Overbys Tegnestue A/S [meddelt af orgelbyggeriet 2016].;47;3;Pedal;55.0569946;8.9504227;Løgumkloster Kirke, Refugievej, 6240 Løgumkloster, Denmark
1966;Løjtofte Kirke ;Th. Frobenius & Co;Mogens Andersen. [meddelt 1991]. Typeorgel.;4;1;(Intet Pedal);54.8989821;11.1237743;Købelev Kirke, Præstegårdsvej, 4912 Harpelunde, Denmark
1971;Gamtofte Kirke ;Bruno Christensen;Leopold Teschl.;14;2;Pedal;55.2846052;9.9747248;Gamtofte Kirke, Brahesborgvej, 5610 Assens, Denmark
1968;Nakskov, Sct. Nicolai Kirke ;Poul-Gerhard Andersen's Orgelbyggeri;;31;3;Pedal;NA;NA;NA
1989;Nakskov, Sct. Nicolai Kirke;Povl Gerhard Due;;5;1;Anhangspedal;NA;NA;NA
1964;Nautrup Kirke ;Jydsk Orgelbyggeri;Jørgen Bang.;5;1;Pedal;56.7461639;8.9080214;Nautrup Kirke, Nautrupvej, Skive Municipality, Denmark
1995;Nibe Kirke ;Bruno Christensen & Sønner;Poul Brøgger.;25;2;Pedal;56.9831524;9.6380508;Nibe Kirke, Grønnegade, 9240 Nibe, Denmark
1979;Nivå Kirke ;P. Bruhn & Søn;Johannes Exner. [Iflg. medd. fra orgelbyggeriet 1980].;25;3;Pedal;55.9247273;12.4917518;Nivå Kirke, Nivå Kirkevej, 2980 Kokkedal, Denmark
1990;Nollund Kirke ;Bruno Christensen & Sønner;;7;1;Pedal;55.7900615;8.8678672;Nollund Kirke, Nollundvej, 7200 Grindsted, Denmark
1943;Nykøbing Mors Kirke ;Marcussen & Søn;;32;3;Pedal;56.7944518;8.8599425;Nykøbing Mors Kirke, Kirketorvet, 7900 Nykøbing, Denmark
1857;Nysted Kirke ;Jens Gregersen;;20;2;Pedal;54.6648854;11.7324606;Nysted Kirke, Adelgade, 4880 Nysted, Denmark
1976;Næsby Kirke ;P. Bruhn & Søn;Knud, Erik og Ebbe Lehn Petersen.;12;2;Pedal;55.4184232;10.3532188;Næsby Kirke, Lundsvænget, 5270 Odense N, Denmark
1975;Næstved, Sct. Mortens Kirke ;Th. Frobenius & Sønner;> Rolf Graae og Erling Jessen [Se noter].;41;3;Pedal;NA;NA;NA
1997;Nørre Bjert Kirke ;Th. Frobenius & Sønner;Birch & Svenning. Jfr. Orglet 1998,1.;14;2;Pedal;55.5141825;9.5327099;Nørre Bjert Kirke, Nørre Bjertvej, Nørre Bjert, Denmark
1804;Nørre Sandager Kirke ;Caspar H.G. Worm;;7;1;(Intet Pedal);55.5562609;10.1707441;Nørre Sandager Kirke, Kirkemosevej, Nordfyn Municipality, Denmark
1848;Nørre Vedby Kirke ;Frederik Hoffmann Ramus;;12;1;Pedal;54.9073428;11.8342371;Nørre Vedby Kirke, Nørre Vedby Kirkevej, 4840 Nørre, Denmark
1969;Nørre Åby Kirke ;Th. Frobenius & Co;1969: Knud, Erik og Ebbe Lehn Petersen. 1997: Vilhelmsen, Marxen og Bech-Jensen.;8;1;Pedal;55.4575261;9.8894287;Nørre Åby Kirke, Kagbanken, 5580 Nørre, Denmark
1979;Obbekær Kirke ;P. Bruhn & Søn;Orgelbyggeriet. [Iflg. medd. fra orgelbyggeriet 1980].;6;1;Pedal;55.3314951;8.8777988;Obbekær Kirke, Gammel Landevej, Esbjerg Municipality, Denmark
1961;Odense, Sct. Hans Kirke;Marcussen & Søn;;5;1;Pedal;55.3991114;10.387546;Saint Hans Church, Sankt Hans Plads, 5000 Odense C, Denmark
1989;Odense, Vor Frue Kirke ;Th. Frobenius & Sønner;Ebbe Lehn Petersen.;39;3;Pedal;55.3977097;10.3955092;Vor Frue Kirke, Frue Kirkestræde, 5000 Odense C, Denmark
1983;Ommel Kirke ;Th. Frobenius & Sønner;> Alan Havsteen-Mikkelsen.;8;1;Pedal;54.8648599;10.4890736;Ommel Kirke, Kirkevejen, 5960 Marstal, Denmark
1989;Osted Kirke ;Th. Frobenius & Sønner;;12;2;Pedal;55.5670935;11.9663893;Osted Kirke, Byvejen, 4320 Lejre, Denmark
1965;Oue Kirke ;Jydsk Orgelbyggeri;;5;1;Pedal;56.6943906;9.9720754;Oue Kirke, Kirkesvinget, Oue, Denmark
1976;Ovsted Kirke ;Jensen & Thomsen;Antagelig orgelbyggeriet.;8;1;Pedal;55.9721709;9.8557517;Ovsted Kirke, Ousted Kirkevej, 8751 Gedved, Denmark
1872;Pederstrup Kirke ;J.A. Demant;;3;1;(Intet Pedal);56.5462775;9.5241617;Pederstrup Kirke, Løvelbrovej, Viborg Municipality, Denmark
1946;Randerup Kirke ;Th. Frobenius & Co;Fin Ditlevsen.;5;1;Pedal;55.0915391;8.7286853;Randerup Kirke, Randerup, Tønder Municipality, Denmark
1978;Ribe, Sct. Catharinæ Kirke ;Bruno Christensen & Sønner;Hovedorgel: Johan Nicolai Scheer 1795 (omdannet 1978). Rygpositiv: H. Lønborg-Jensen 1932.;49;4;Pedal;55.3271958;8.7649884;Sct. Catharinæ kirke/kloster, Klostergade, 6760 Ribe, Denmark
1994;Rind Kirke ;Bruno Christensen & Sønner;Arkitekterne, Thisted. [Iflg. medd. fra orgelbyggeriet, jfr. Orglet 1995,1].;10;2;Pedal;56.0908263;8.9583417;Rind kirke, Herning Municipality, Central Denmark Region, Denmark
1974;Ringkøbing Kirke;Th. Frobenius & Sønner;Rolf Graae.;22;2;Pedal;56.0907445;8.2445908;Ringkøbing Kirke, Kirkepladsen, 6950 Ringkøbing, Denmark
1885;Rise Kirke ;Marcussen & Søn;;17;2;Pedal;54.8540289;10.3997103;Rise Kirke, Kirkeballevej, 5970 Ærøskøbing, Denmark
1884 (?);Ristinge Kirke ;Frederik Nielsen;;4;1;(Intet Pedal);54.8237558;10.6358911;Ristinge Kirke, Ristingevej, Langeland Municipality, Denmark
1985;Roskilde, Himmelev Kirke ;Jensen & Thomsen;Rolf Graae.;14;2;Pedal;55.6613775;12.1045075;Himmelev Kirke, Østre Kirkevej, 4000 Roskilde, Denmark
1995;Rye, Sct. Sørens Kirke ;Marcussen & Søn;Poul Brøgger. [Se noter].;17;2;Pedal;NA;NA;NA
1994;Råby Kirke ;Marcussen & Søn;Vilhelmsen, Marxen og Bech-Jensen.;9;2;Pedal;56.6056945;10.232848;Råby Kirke, Toftevejen, 8970 Havndal, Denmark
1866;Sakskøbing Kirke ;Daniel Köhne;;17;2;Pedal;54.8002326;11.6350948;Sakskøbing Kirke, Vestergade, 4990 Sakskøbing, Denmark
1983;Seem Kirke ;P. Bruhn & Søn;Sv.Aa. Aakjær. [Iflg. Danmarks Kirker].;7;1;Pedal;55.3140436;8.8287786;Seem Kirke, Seem Kirkevej, Esbjerg Municipality, Denmark
1952;Skuldelev Kirke ;Th. Frobenius & Co;Fin Ditlevsen.;7;1;Pedal;55.7848894;12.017568;Skuldelev Kirke, Kirkevej, Skuldelev, Denmark
1964;Skælskør Kirke ;Th. Frobenius & Co;Arkitekter: Hans Erik Engqvist og Karsten Rønnow. NB: Ældre facade.;18;2;Pedal;55.2540274;11.2866381;Sankt Nicolai Kirke, Gammelgade, 4230 Skælskør, Denmark
1996;Skæring Kirke ;Th. Frobenius & Sønner;Inger & Johannes Exner. [Iflg. medd. fra orgelbyggeriet 1997].;16;2;Pedal;56.2340724;10.3044256;Skæring Kirke, Skæring Hedevej, 8250 Egå, Denmark
1965;Skærup Kirke ;Th. Frobenius & Sønner;Chr. Pedersen.;7;1;Pedal;55.6494241;9.5995299;Skærup Kirke, Skærup Kirkevej, Skærup, Denmark
1942;Skørring Kirke ;A.C. Zachariasen;;4;1;(Intet Pedal);56.3635319;10.2769074;Skørring Kirke, Jomfru Gundersvej, Skørring, Denmark
1976;Skårup Kirke ;P. Bruhn & Søn;;10;2;Pedal;55.0937833;10.6870261;Skårup Kirke, Skårup Kirkebakke, 5881 Skårup, Denmark
1961;Slagelse, Sct. Mikkels Kirke ;Marcussen & Søn;Poul-Gerhard Andersen. [Iflg. Nyholm 1987].;35;3;Pedal;NA;NA;NA
1945;Solbjerg Kirke ;Marcussen & Søn;;7;1;Pedal;55.67996;12.5288495;Solbjerg Kirke, Howitzvej, 1861 Frederiksberg C, Denmark
1942;Sorø Kirke ;Marcussen & Søn;Kaare Klint i samarbejde med orgelbyggeriet. [Jensen 1994]. Billedskærere: 1628: Peter Jürgensen. 1944: Erik Pedersen.;37;3;Pedal;55.500584;11.6241896;4296 Nyrup, Denmark
1973;Sorø Kirke;Poul-Gerhard Andersen's Orgelbyggeri;;6;1;Anhangspedal;55.500584;11.6241896;4296 Nyrup, Denmark
1861;Stenmagle Kirke ;Jens Gregersen;;5;1;(Intet Pedal);55.5534531;11.6228065;Stenmagle Kirke, Sorøvej, 4296 Nyrup, Denmark
1877;Store Heddinge Kirke;Knud Olsen;;17;2;Pedal;55.312727;12.3916849;Sankt Katharina Kirke, Erikstrupvej, 4660 Store, Denmark
1976;Store Heddinge Kirke ;Th. Frobenius & Sønner;> Preben Thorsen.;20;2;Pedal;55.312727;12.3916849;Sankt Katharina Kirke, Erikstrupvej, 4660 Store, Denmark
1997;Stouby Kirke ;Bruno Christensen & Sønner;Birch & Svenning;11;2;Pedal;55.7210161;9.7859169;Stouby Kirke, Stouby Kirkevej, 7140 Stouby, Denmark
1973;Strandby Kirke ;I. Starup & Søn;;10;2;Pedal;57.4955224;10.494773;Strandby Kirke, Strandvej, 9970 Strandby, Denmark
1995;Stubbekøbing Kirke ;Th. Frobenius & Sønner;"Rolf Graae [iflg. medd. fra denne]. NB: Ældre facade genanvendt; tegnet af H.B. Storck [se noter].";27;3;Pedal;54.8901311;12.04406;Stubbekøbing Church, Grønnegade, 4850 Stubbekøbing, Denmark
1960;Sønder Alslev Kirke ;Jydsk Orgelbyggeri;;5;1;Anhangspedal;54.7623661;12.0027557;Sønder Alslev Kirke, Kirkestræde, 4872 Idestrup, Denmark
1979;Sønderholm Kirke ;Bruno Christensen & Sønner;;9;2;Pedal;57.0016056;9.7441234;Sønderholm Kirke, Nibevej, Sønderholm, Denmark
1969;Søndersø Kirke ;Th. Frobenius & Sønner;;11;2;Pedal;55.4867162;10.2471809;Søndersø Kirke, Kirkevænget, 5471 Søndersø, Denmark
1995;Sørig Kirke ;Jensen & Thomsen;Orgelbyggeriet.;15;2;Pedal;57.5663907;10.2835226;Sørig Kirke, Tuenvej, Hjørring Municipality, Denmark
1978;Teestrup Kirke ;Jensen & Thomsen;;11;2;Pedal;55.3301022;11.8842505;Teestrup Kirke, Teestrup Bygade, Teestrup, Denmark
1968;Tolstrup Kirke ;Th. Frobenius & Sønner;;6;1;Pedal;57.3026954;9.9073118;Tolstrup Kirke, Tolstrupvej, 9700 Brønderslev, Denmark
1996;Tommerup Kirke ;Bruno Christensen & Sønner;Ebbe Lehn Petersen.;10;2;Pedal;55.3213628;10.2132326;Tommerup Kirke, Møllebakken, 5690 Tommerup, Denmark
1972;Torup Kirke ;Frederiksborg Orgelbyggeri;;12;2;Pedal;55.9833347;11.9401484;Torup Kirke, Torupvejen, 3370 Melby, Denmark
1954;Tranebjerg Kirke ;Th. Frobenius & Co;> Marinus Andersen.;11;2;Pedal;55.834649400000004;10.5867393;Tranebjerg Kirke, Tingvej, 8305 Samsø, Denmark
1995;Tunø Kirke ;P. Bruhn & Søn;;8;1;Pedal;55.9494971;10.4438448;Tunø Kirke, Tunø Hovedgade, 8799 Tunø, Denmark
1995;Tyvelse Kirke ;P.G. Andersen & Bruhn;;11;2;Pedal;55.3828977;11.6940044;Tyvelse Kirke, Tyvelse Bygade, 4171 Glumsø, Denmark
1974;Tørring Kirke ;Th. Frobenius & Sønner;;7;1;Pedal;55.8582245;9.4827649;Tørring Kirke, Degnevej, 7160 Tørring, Denmark
1965;Tørring Kirke ;Th. Frobenius & Co;Arkitekter: Rolf Graae og Richard Aas [se noter].;7;1;Pedal;55.8582245;9.4827649;Tørring Kirke, Degnevej, 7160 Tørring, Denmark
1973;Tåstrup Nykirke ;Th. Frobenius & Sønner;;27;2;Pedal;55.6544987;12.3038616;Tåstrup Nykirke Kirkegård, Klovtofte, Taastrup, Denmark
1961;Ulstrup Kirke ;Jydsk Orgelbyggeri;1961: (Ikke oplyst). 1998: Vilhelmsen, Marxen og Bech-Jensen. [Iflg. meddelelse fra orgelbyggeriet].;11;2;Pedal;56.8353965;9.4222454;Ulstrup Kirke, Kirkevej, Hornum, Denmark
1971;Ulstrup Kirke ;Jensen & Thomsen;;6;1;Pedal;56.8353965;9.4222454;Ulstrup Kirke, Kirkevej, Hornum, Denmark
1952;Varde Kirke ;Marcussen & Søn;Rolf Graae.;33;3;Pedal;55.6202806;8.4793717;Sankt Jacobi Kirke, Kirkepladsen, 6800 Varde, Denmark
1857;Varde Kirke;Johan Andreas Ohrt;;9;1;Anhangspedal;55.6202806;8.4793717;Sankt Jacobi Kirke, Kirkepladsen, 6800 Varde, Denmark
1968;Vedslet Kirke ;Jydsk Orgelbyggeri;Edv. Thomsen. [Iflg. korrespondance i NM].;5;1;Pedal;55.9686557;10.0049644;Vedslet Kirke, Assendrup, Central Denmark Region, Denmark
1967;Veggerby Kirke ;Th. Frobenius & Sønner;Leopold Teschl.;7;1;Pedal;56.8921653;9.658907;Veggerby Kirke, Kirketerpvej, 9541 Suldrup, Denmark
1987;Vejlby Kirke ;Th. Frobenius & Sønner;Ebbe Marxen.;12;2;Pedal;56.1951459;10.2118118;Vejlby Kirke, Filosofgangen, 8240 Risskov, Denmark
1990;Vejrum Kirke ;Th. Frobenius & Sønner;;14;2;Pedal;56.4426664;9.5567569;Vejrum Kirke, Vejrumbro, Central Denmark Region, Denmark
1961;Vejrum Kirke ;Jydsk Orgelbyggeri;;6;1;Pedal;56.4426664;9.5567569;Vejrum Kirke, Vejrumbro, Central Denmark Region, Denmark
1949;Velling Kirke ;Marcussen & Søn;;7;1;Pedal;56.0515908;8.3106546;Velling Kirke, Velling Kirkeby, Velling, Denmark
1969;Vester Nykirke ;Bruno Christensen;;5;1;Pedal;55.5109494;8.6955905;Vester Nykirke, Nykirkevej, 6740 Bramming, Denmark
1977;Vester Vedsted Kirke ;Bruno Christensen & Sønner;Rolf Graae (ældre facade).;12;2;Pedal;55.2911537;8.6742986;Vester Vedsted Kirke, Sønder Kirkevej, Vester Vedsted, Denmark
1976;Vester Åby Kirke ;Th. Frobenius & Sønner;;14;2;Pedal;55.08488;10.3822373;Vester Åby Kirke, Præstegårdsvej, Vester Åby, Denmark
1938;Vesterborg Kirke ;Th. Frobenius & Co;;7;1;Anhangspedal;54.8612754;11.2704019;Vesterborg Kirke, Rosningevej, 4953 Vesterborg, Denmark
1978;Vestervig Kirke ;Marcussen & Søn;;53;4;Pedal;56.7731612;8.31728;Vestervig Kirke, Klostergade, 7770 Vestervig, Denmark
1974;Vind Kirke ;Th. Frobenius & Sønner;Se noter.;4;1;(Intet Pedal);56.2621105;8.5452647;Vind Kirke, Råstedvej, Vind, Denmark
1995;Virring Kirke ;Bruno Christensen & Sønner;Gert Madsen.;10;2;Pedal;56.4346119;10.2464326;Virring Kirke, Kirketoften, Randers Municipality, Denmark
1949;Viskinge Kirke ;Th. Frobenius & Co;;7;1;Pedal;55.6618043;11.2700651;Viskinge Kirke, Kirkebakken, 4470 Svebølle, Denmark
1996;Voldby Kirke ;Jydsk Orgelbyggeri;Vilhelmsen, Marxen og Bech-Jensen.;8;1;Pedal;56.2365153;9.8832469;Voldby Kirke, Gammel Hammelvej, 8450 Hammel, Denmark
2001;Vonsild Kirke ;P.G. Andersen & Bruhn;> Kuno Mielby, Vejle [Se noter].;22;3;Pedal;55.4564115;9.4774114;Vonsild Kirke, Vonsild Stationsvej, 6000 Kolding, Denmark
1970;Vrinners Kirke ;Jydsk Orgelbyggeri;;6;1;Pedal;56.2466915;10.4941954;Vrinners Kirke, Vrinners Bygade, Vrinners, Denmark
1984;Vrå Valgmenighedskirke ;Bruno Christensen & Sønner;;8;2;Pedal;57.3558129;9.9370852;Vrå Valgmenighedskirke, Vestergade, 9760 Vrå, Denmark
1996;Vær Kirke ;Marcussen & Søn;Birch & Svenning. [Iflg. medd. fra orgelbyggeriet 1997].;13;2;Pedal;55.8871451;9.9148069;Vær Kirke, Meldrupvej, Horsens, Denmark
1979;Yding Kirke ;Bruno Christensen & Sønner;;5;1;Pedal;55.9996501;9.7713856;Yding Kirke, Skovhøjvej, 8752 Østbirk, Denmark
1881;Ærøskøbing Kirke ;Marcussen & Søn;;16;2;Pedal;54.8879328;10.4122481;Ærøskøbing Kirke, Kirkestræde, 5970 Ærøskøbing, Denmark
1989;Øland Kirke ;Gunnar Fabricius Husted;Poul Brøgger.;18;2;Pedal;57.0631848;9.5735926;Oxholm Kirke, Vestre Skovvej, Østerby, Denmark
1972;Ørnhøj Kirke ;Frederiksborg Orgelbyggeri;Orgelbyggeriet ;6;1;Pedal;56.2015442;8.5592067;Ørnhøj Kirke, Hovedgaden, 6973 Ørnhøj, Denmark
1973;Ørslevkloster Kirke ;Th. Frobenius & Sønner;Leopold Teschl.;9;2;Pedal;56.597761;9.2174437;Ørslevkloster Kirke, Ørslevklostervej, 7840 Højslev, Denmark
1970;Øster Skerninge Kirke ;Poul-Gerhard Andersen's Orgelbyggeri;;11;2;Pedal;55.0683971;10.4743844;Øster Skerninge Kirke, Åkildevej, 5762 Vester, Denmark
1996;Øster Tørslev Kirke ;P.G. Andersen & Bruhn;;12;2;Pedal;56.5787904;10.1909064;Øster Tørslev Kirke, Kirkestien, Øster Tørslev, Denmark
1974;Ågerup Kirke ;Gunnar Fabricius Husted;Orgelbyggeriet.;14;2;Pedal;55.6632811;11.7632827;Ågerup Kirke, Ågerupvej, 4390 Vipperød, Denmark
1961;Aalborg, Vor Frue Kirke ;Marcussen & Søn;;48;4;Pedal;57.0463634;9.9239599;Church of Our Lady, Aalborg, Vor Frue Plads, 9000 Aalborg, Denmark
1965;Ålbæk Kirke ;Brdr. Bruhn;Rolf Graae.;13;2;Pedal;57.5937671;10.4024639;Ålbæk Kirke, Gårdbovej, 9982 Ålbæk, Denmark
1946;Ålestrup Kirke ;Th. Frobenius & Co;;11;2;Pedal;56.6926974;9.4994086;Ålestrup Kirke, Kirkevej, 9620 Aalestrup, Denmark
1974;Årby Kirke ;Th. Frobenius & Sønner;Mogens Andersen [Se noter].;14;2;Pedal;55.6478692;11.1383166;Aarby Kirke, Årbygade, Årby, Denmark
1994;Aarhus, Åbyhøj Kirke ;Marcussen & Søn;H. Lønborg-Jensen.;26;3;Pedal;56.1550938;10.1573722;Åbyhøj Kirke, Silkeborgvej, 8230 Åbyhøj, Denmark
1965;København, Vor Frelsers Kirke;Poul-Gerhard Andersen's Orgelbyggeri;;58;4;Pedal;55.6729079;12.5942519;Church of Our Saviour, Copenhagen, Dronningensgade, 1416 København K, Denmark
1995;København, Vor Frue Kirke;Marcussen & Søn;Vilhelm Wohlert.;87;5;Pedal;55.6793766;12.5727267;Church of Our Lady, Dyrkøb, 1166 Copenhagen, Denmark
1968;Køge Kirke ;Marcussen & Søn;Rolf Graae.;38;3;Pedal;55.45824;12.1830841;Sankt Nicolai Kirke, Nørregade, 4600 Køge, Denmark
1874 (?);Langøre Kirke ;J.A. Demant;;3;1;(Intet Pedal);NA;NA;NA
1975;Linnerup Kirke ;Bruno Christensen & Sønner;Orgelbyggeren. [Typeorgel, se noter].;4;1;(Intet Pedal);55.8946308;9.4959856;Linnerup Kirke, Linnerupvej, 8765 Klovborg, Denmark
1970;Lunde Kirke ;I. Starup & Søn;;7;2;Pedal;55.7615553;8.3684011;Lunde Kirke, Gammel Lundevej, 6855 Outrup, Denmark
1994;Lyng Kirke ;P. Bruhn & Søn;Inger & Johannes Exner.;15;2;Pedal;55.5296948;9.7299213;Lyng Kirke, Kystvejen, 5500 Middelfart, Denmark
1944;Lyngby Kirke ;Marcussen & Søn;;10;1;Pedal;55.773475;12.5002735;Lyngby Kirke, Lyngby Hovedgade, 2800 Kongens Lyngby, Denmark
1989;Lystrup Kirke ;Th. Frobenius & Sønner;Arkitektgruppen Regnbuen i samarbejde med orgelbyggeriet. (Se endvidere noter).;21;2;Pedal;56.2354472;10.2341364;Lystrup Kirke, Lystrup Centervej, 8520 Lystrup, Denmark
1973;Læborg Kirke ;Th. Frobenius & Sønner;;5;1;Pedal;55.5228585;9.1147128;Læborg Kirke, Læborgvej, 6600 Vejen, Denmark
1924;Løkken Kirke ;Marcussen & Søn;> Arkitekt (1993): Alan Havsteen-Mikkelsen. [Iflg. Organistbladet 1993, s. 362]. > Arkitekt og farvekonsulent (2014): Jørgen Ussing.;18;3;Pedal;57.3734826;9.7137527;Løkken Kirke, Præstevangen, 9480 Løkken, Denmark
1992;Lønborg kirke ;P. Bruhn & Søn;Vilhelmsen, Aarhus. NB: ældre facade genanvendt. [Ifølge meddelelse fra orgelbyggeriet 1993].;7;1;Pedal;55.9053445;8.4430583;Lønborg Kirke, Bakkevej, Lønborg, Denmark
1901;Maglebrænde Kirke ;Gebr. Rieger;;4;1;(Intet Pedal);54.8613991;12.0179931;Maglebrænde Kirke, Byvej, 4850 Stubbekøbing, Denmark
1994;Magleby Kirke ;Albert E. Lang;Preben Thorsen. (Se noter].;14;2;Pedal;54.9842912;12.484253;Magleby Kirke, Klintevej, 4791 Borre, Denmark
1852;Malle Kirke ;Peter Mortensen Gudme;;5;1;(Intet Pedal);56.9169016;9.2369177;Malle Kirke, Malle Kirkevej, 9670 Løgstør, Denmark
1954;Malt Kirke ;Marcussen & Søn;Orgelbyggeriet.;7;1;Pedal;55.4700038;9.0692945;Malt Kirke, Maltvej, Vejen Municipality, Denmark
1914;Maribo Domkirke ;I. Starup;;50;3;Pedal;54.7726089;11.4997528;Maribo Cathedral, Klostergade, 4930 Maribo, Denmark
1973;Marstal Kirke ;Th. Frobenius & Sønner;Arkitekter: Knud, Erik og Ebbe Lehn Petersen. ;16;2;Pedal;54.8549571;10.516954;Marstal Kirke, Kongensgade, 5960 Marstal, Denmark
1962;Middelfart Kirke ;Th. Frobenius & Co;Rolf Graae. ;29;3;Pedal;55.5066916;9.7280658;Sankt Nicolai Kirke, Algade, 5500 Middelfart, Denmark
1882;Moltrup Kirke ;Marcussen & Søn;;12;1;Pedal;55.2824353;9.4515292;Moltrup Kirke, Møllesvinget, Haderslev Municipality, Denmark
1977;Mosbjerg Kirke ;Frederiksborg Orgelbyggeri;.;6;1;Pedal;57.5009539;10.2623165;Mosbjerg Kirke, Pletvej, 9870 Sindal, Denmark
1982;Mosede Kirke ;Poul-Gerhard Andersen's Orgelbyggeri;;21;2;Pedal;55.5777315;12.2748614;Mosede Kirke, Mosede Parkvej, 2690 Karlslunde, Denmark
1679;Møgeltønder Kirke ;Anonym Mester;;25;2;Pedal;54.9402658;8.803992;Møgeltønder Kirke, Sønderbyvej, Møgeltønder, Denmark
1989;Mørkøv Kirke ;Th. Frobenius & Sønner;;9;2;Pedal;55.6658343;11.5209984;Mørkøv Kirke, Mørkøv Kirkeby, 4440 Mørkøv, Denmark
1990;Nebsager Kirke ;Th. Frobenius & Sønner;Ebbe Marxen. [Medd. af orgelbyggeriet].;7;1;Pedal;55.7550443;9.86458;Nebsager Kirke, Nebsager Kirkevej, 8783 Hornsyld, Denmark
1893;Nustrup Kirke ;Marcussen & Søn;;13;2;Pedal;55.2744989;9.1716173;Nustrup Kirke, Kirkepladsen, Nustrup, Denmark
1973;Nyborg, Vor Frue Kirke ;Poul-Gerhard Andersen's Orgelbyggeri;> P.-G. Andersen, i samarbejde med Marinus Andersen.;44;3;Pedal;55.3115006;10.7930092;Vor Frue Kirke, Korsbrødregade, 5800 Nyborg, Denmark
1976;Nybøl Kirke ;Marcussen & Søn;;12;2;Pedal;54.9203384;9.681296;Nybøl Kirke, Skolevænget, 6310 Broager, Denmark
1960;Nyker, Nykirke ;I. Starup & Søn;Marinus Andersen.;6;1;Pedal;55.1395809;14.7692882;Nykirke Kirkegård, Ellebyvej, Nyker, Denmark
1980;Nykøbing Falster Kirke ;Th. Frobenius & Sønner;Peter Paludan.;45;3;Pedal;54.7800608;11.8708682;Nordre Kirke, Hammerlodden, 4800 Nykøbing, Denmark
1994;Nykøbing Sjælland Kirke ;Gunnar Fabricius Husted;Rolf Graae. [Iflg. meddelelse fra orgelbyggeriet april 1994]. Farvesætning: Mogens Jørgensen. [Iflg. meddelelse fra orgelbyggeriet april 1994].;26;2;Pedal;55.9249356;11.6711341;Nykøbing Sjælland Kirke, Nørregade, 4500 Nykøbing, Denmark
1915;Nykøbing Sjælland, Psykiatrihospitalets Kirke ;I. Starup;K. Varming. [Se noter].;4;1;(Intet Pedal);NA;NA;NA
1966;Nørre Nærå Kirke ;Th. Frobenius & Co;1966: Rolf Graae. 1994: Ebbe Lehn Petersen.;16;2;Pedal;55.5732936;10.2835446;Nørre Næraa Kirke, Kirkegyden, Nordfyn Municipality, Denmark
1967;Røgen Kirke ;Jydsk Orgelbyggeri;Vinther & Roldsgaard. [Se noter].;6;1;Pedal;56.2078111;9.8085325;Røgen Kirke, Toustrupvej, 8472 Sporup, Denmark
1968;Nørre Tranders Kirke ;Frederiksborg Orgelbyggeri;;23;2;Pedal;57.0327612;9.982066;Nørre Tranders Kirke, Lemvigvej, 9220 Aalborg Øst, Denmark
1994;Odder Kirke ;Th. Frobenius & Sønner;Vilhelmsen, Marxen og Bech-Jensen. [Iflg. medd. fra orgelbyggeriet 7. marts 1995].;18;2;Pedal;55.9730022;10.1524304;Odder Kirke, Kirkesti, 8300 Odder, Denmark
1890;Odder Valgmenighedskirke ;Frederik Nielsen;(1948) N.M. Nielsen.;6;1;(Intet Pedal);55.9741065;10.1591714;Odder Valgmenighedskirke, Rørthvej, 8300 Odder, Denmark
1962;Odense, Sct. Hans Kirke ;Marcussen & Søn;Knud, Erik og Ebbe Lehn Petersen. [Iflg. medd. fra tegnestuen].;37;3;Pedal;55.3991114;10.387546;Saint Hans Church, Sankt Hans Plads, 5000 Odense C, Denmark
1965;Odense, Sct. Knuds Kirke ;Marcussen & Søn;Se noter.;57;4;Pedal;NA;NA;NA
1989;Odense, Vor Frue Kirke;P. Bruhn & Søn;;4;1;(Intet Pedal);55.3977097;10.3955092;Vor Frue Kirke, Frue Kirkestræde, 5000 Odense C, Denmark
1950;Olsker, Sct. Ols Kirke ;I. Starup & Søn;V. Hardie-Fischer.;5;1;Anhangspedal;NA;NA;NA
1971;Pedersborg Kirke ;Jensen & Thomsen;Arkitekter: Rolf Graae og Erling Jessen.;10;2;Pedal;55.451594;11.5559455;Pedersborg Kirke, Kirkevænget, 4180 Sorø, Denmark
1996;Randers, Enghøj Kirke ;Th. Frobenius & Sønner;Henning Larsen.;17;2;Pedal;56.4867935;10.0002286;Enghøj Kirke, Løven, 8920 Randers NV, Denmark
1995;Ravnkilde kirke ;Bruno Christensen & Sønner;Poul Brøgger.;10;2;Pedal;56.7549014;9.7559642;Ravnkilde Kirke, Bygaden, Ravnkilde, Denmark
1973;Ribe Domkirke ;Th. Frobenius & Sønner;"1973: Knud, Erik og Ebbe Lehn Petersen (facade-""rekonstruktion""). 1994: Ebbe Lehn Petersen. [Iflg. medd. fra orgelbyggeriet 9. marts 1995].";50;4;Pedal;55.3280665;8.7614727;Ribe Cathedral, Torvet, 6760 Ribe, Denmark
1970;Ringsted, Sct. Bendts Kirke ;Poul-Gerhard Andersen's Orgelbyggeri;Poul-Gerhard Andersen i samarbejde med Marinus Andersen [se noter].;46;3;Pedal;55.4454181;11.7870078;Sct. Bendts church, Sanct Bendts Gade, 4100 Ringsted, Denmark
1992;Rise Kirke ;Marcussen & Søn;.;21;2;Pedal;54.8540289;10.3997103;Rise Kirke, Kirkeballevej, 5970 Ærøskøbing, Denmark
1857;Roskilde Klosterkirke ;Demant & Søn;;4;2;Pedal;55.6416354;12.0867139;Roskilde Klosterkirke, Klosterstien, 4000 Roskilde, Denmark
1961;Rousthøje Kirke ;Frederiksborg Orgelbyggeri;;4;1;(Intet Pedal);55.5766286;8.5903582;Rousthøje Kirke, Kirkevejen, Varde Municipality, Denmark
1889;Rye Kirke;Knud Olsen;Erik Bahn.;5;1;(Intet Pedal);55.6739662;11.8747177;Rye Kirke, Ejbyvej, 4060 Kirke, Denmark
1976;Rødbyhavn Kirke ;Bruno Christensen & Sønner;;11;2;Pedal;54.6666097;11.3617766;Rødbyhavn Kirke, Havnegade, 4970 Rødby, Denmark
1995;Rødhus Kirke ;Gunnar Fabricius Husted;Orgelbyggeriet? [se noter].;6;2;Pedal;57.206765;9.5459195;Rødhus Kirke, Rødhus Kirkevej, Jammerbugt Municipality, Denmark
1893;Rørup Kirke ;Frederik Nielsen;;6;1;(Intet Pedal);55.4133159;10.026222;Rørup Kirke, Gelstedvej, 5560 Aarup, Denmark
1994;Rørvig Kirke ;Jensen & Thomsen;;14;2;Pedal;55.9479083;11.7341643;Rørvig Kirke, Kirkestien, 4581 Rørvig, Denmark
1959;Saltum Kirke ;Jydsk Orgelbyggeri;;7;1;Pedal;57.281998;9.6954969;Saltum Kirke, Saltum Strandvej, 9493 Saltum, Denmark
1994;Sem Kirke ;Jydsk Orgelbyggeri;Ebbe Marxen. [Iflg. medd. fra orgelbyggeriet marts 1994].;6;1;Pedal;56.626576;10.0965273;Sem Kirke, Sem Kirkevej, Mariagerfjord Municipality, Denmark
1968;Koldmose Kirke ;I. Starup & Søn;Rolf Graae [iflg. meddelelse fra kirken, jf. i øvrigt fortegnelsen i Dansk Orgelaarbog 1987-1988-1989, s. 14].;6;1;Pedal;57.1533515;9.5525618;Koldmose Kirke, Koldmose Kirkevej, Jammerbugt Municipality, Denmark
1977;Silkeborg, Alderslyst Kirke ;Th. Frobenius & Sønner;Viggo Hardie-Fischer [Se noter].;21;2;Pedal;56.1817211;9.5535669;Alderslyst Kirke, Tulipanvej, 8600 Silkeborg, Denmark
1906;Simmerbølle Kirke ;Joh.P. Andresen & Co;;6;1;(Intet Pedal);54.9448838;10.7624227;Simmerbølle Kirke, Nordre Landevej, 5900 Rudkøbing, Denmark
1992;Sindbjerg Kirke ;Bruno Christensen & Sønner;Orgelbyggeriet. [Ifølge meddelelse fra orgelbyggeriet 1993].;10;2;Pedal;55.8008662;9.5588926;Sindbjerg Kirke, Riberlundvej, Lindved, Denmark
1985;Sjørring Kirke ;Troels Krohn;;7;1;Pedal;56.9516303;8.5901669;Sjørring Kirke, Næstrupvej, 7700 Thisted, Denmark
1978;Skads Kirke ;P. Bruhn & Søn;Orgelbyggeren.;9;2;Pedal;55.5100051;8.5572664;Skads Kirke, Skads Byvej, Skads, Denmark
1927;Skibby Kirke ;Th. Frobenius & Co;Johannes Tidemand-Dal.;7;1;Pedal;55.7484507;11.9584682;Skibby Kirke, Hovedgaden, 4050 Skibby, Denmark
1975;Skibet Kirke ;Th. Frobenius & Sønner;> Viggo Hardie-Fischer [Danmarks Kirker].;12;2;Pedal;55.7052537;9.4411283;Skibet Kirke, Bredstenvej, Skibet, Denmark
1993;Skjoldborg Kirke ;Bruno Christensen & Sønner;Arkitekterne, Thisted, v/ Ib Lydholm.;10;2;Pedal;56.9087386;8.6104866;Skjoldborg Kirke, Gadesvej, Thisted Municipality, Denmark
1984;Skoven Kirke ;Jensen & Thomsen;;9;1;Pedal;55.9043377;11.9422899;Skoven Kirke, Skovkirkevej, 3630 Jægerspris, Denmark
1968;Skovshoved Kirke ;Th. Frobenius & Sønner;Erik Møller.;24;3;Pedal;55.762562;12.59273;Skovshoved Kirke, Krøyersvej, 2930 Klampenborg, Denmark
1995;Skrave Kirke ;Anders Havgaard Rasmussen;;7;1;Pedal;55.4108866;9.106835;Skrave Kirke, Skravevej, 6630 Rødding, Denmark
1987;Skydebjerg Kirke ;Marcussen & Søn;;7;1;Pedal;55.3616686;10.0471119;Skydebjerg Kirke, Kirkevej, 5560 Aarup, Denmark
1971;Skørping Nykirke ;Jydsk Orgelbyggeri;;14;2;Pedal;56.8331546;9.8905831;Skørping Nykirke, Nykirkevej, 9520 Skørping, Denmark
1989;Smørum Kirke ;Poul-Gerhard Andersen's Orgelbyggeri;;16;2;Pedal;55.7338096;12.2783296;Elmehøj, Smørum Kirke, Skebjergvej, 2765 Smørum, Denmark
1993;Snedsted Kirke ;Bruno Christensen & Sønner;Arkitekterne, Thisted, v/Olaf Brush. [Medd. af orgelbyggeriet 1994].;16;2;Pedal;56.8942443;8.5407786;Snedsted Kirke, Snedstedvej, 7752 Snedsted, Denmark
1989;Sorgenfri Kirke ;Th. Frobenius & Sønner;;36;3;Pedal;55.7800111;12.4803542;Sorgenfri Kirke, Hummeltoften, 2830 Virum, Denmark
1844;Sottrup Kirke ;Marcussen & Reuter;;15;2;Pedal;54.9489082;9.6929236;Vester Sottrup Kirke, Kirkeagervej, Vester Sottrup, Denmark
1920;Starup Kirke ;Marcussen & Søn;;13;2;Pedal;55.2484099;9.5324405;Sønder Starup Kirke, Starup Hedevej, 6100 Haderslev, Denmark
1945;Stenderup Kirke ;Th. Frobenius & Sønner;Fin Ditlevsen.;5;1;(Intet Pedal);55.6949719;8.8409957;Stenderup Kirke, Østergaardsvej, Stenderup, Denmark
1898;Stenløse Kirke ;A.H. Busch & Sønner;;5;1;Anhangspedal;55.7672103;12.1978939;Stenløse Kirke, Engholmvej, 3660 Stenløse, Denmark
1956;Sundby Kirke ;Th. Frobenius & Co;;7;1;Pedal;55.660867;12.6052788;Sundby Kirke, Frankrigsgade, 2300 København S, Denmark
1960;Svindinge Kirke ;I. Starup & Søn;;6;2;Pedal;55.2167153;10.6868939;Svindinge Kirke, Svendborgvej, Svindinge, Denmark
1990;Sæby Kirke ;Albert E. Lang;HS Rådgivning, Slagelse.;12;2;Pedal;57.3331953;10.5287049;Sankt Mariæ Kirke, Strandgade, 9300 Sæby, Denmark
1993;Særløse Kirke ;Poul-Gerhard Andersen's Orgelbyggeri;Muligvis Per Axelsen, Roskilde. [Se noter].;11;2;Pedal;55.5777;11.9168212;Særløse Kirke, Særløsevej, Lejre Kommune, Denmark
1984;Søby Kirke ;Th. Frobenius & Sønner;;10;2;Pedal;54.9385696;10.2568185;Søby Kirke, Langebro, 5985 Søby, Denmark
1960;Sønder Omme Kirke ;Marcussen & Søn;> Helge Andreassen [Se noter].;7;1;Pedal;55.8391788;8.8924176;Sønder Omme Kirke, Kirke Alle, 7260 Sønder, Denmark
1955;Tanderup Kirke ;I. Starup & Søn;Mogens Koch.;12;2;Pedal;55.3664426;9.9067122;Tanderup Kirke, Tanderupvej, Middelfart Municipality, Denmark
1971;Terslev Kirke ;Frederiksborg Orgelbyggeri;;7;2;Pedal;55.3758126;11.9641928;Terslev Kirke, Terslev Bygade, 4690 Haslev, Denmark
1974;Them Kirke ;Marcussen & Søn;;16;2;Pedal;56.0945586;9.5493452;Them Kirke, Silkeborgvej, 8653 Them, Denmark
1972;Thisted Kirke ;Th. Frobenius & Sønner;;46;3;Pedal;56.9546505;8.6891269;Thisted Kirke, Vestergade, Thisted, Denmark
1969;Thisted Kirke;Klaus Becker;;3;1;(Intet Pedal);56.9546505;8.6891269;Thisted Kirke, Vestergade, Thisted, Denmark
1855;Thyrsting Kirke ;P.U.F. Demant;;5;1;(Intet Pedal);NA;NA;NA
1960;Tjæreby Kirke ;Th. Frobenius & Co;;5;1;Pedal;55.2469138;11.3601784;Tjæreby Kirke, Kirkevej, Slagelse Municipality, Denmark
1994;Tornbjerg Kirke ;P. Bruhn & Søn;;18;2;Pedal;55.3701406;10.45753;Tornbjerg Kirke, Skærmhatten, 5220 Odense SØ, Denmark
1850 (?);Tranderup Kirke ;Peter Mortensen Gudme;;4;1;(Intet Pedal);54.8723457;10.3573047;Tranderup Kirke, Tranderupvej, 5970 Ærøskøbing, Denmark
1966;Tullebølle Kirke ;Th. Frobenius & Co;;10;2;Pedal;54.959176;10.8023658;Tullebølle Kirke, Kirkesti, Tullebølle, Denmark
1995;Tyrsted Kirke ;Bruno Christensen & Sønner;Vilhelmsen, Marxen og Bech-Jensen.;13;2;Pedal;55.8270505;9.853823;Tyrsted kirke, Tyrsted, Horsens, Central Denmark Region, Denmark
1973;Tyrstrup Kirke ;P. Bruhn & Søn;;21;2;Pedal;55.352494;9.4851164;Tyrstrup Kirke, Gammel Kongevej, 6070 Christiansfeld, Denmark
1860 (?);Tystrup Kirke ;Peter Mortensen Gudme;;4;1;(Intet Pedal);55.3616058;11.5639912;Tystrup Kirke, Bakkegårdsvej, 4250 Fuglebjerg, Denmark
1966;Tølløse Kirke ;Poul-Gerhard Andersen's Orgelbyggeri;Rolf Graae.;6;1;Pedal;55.6147241;11.7453483;Tølløse Kirke, Nybyvej, 4340 Tølløse, Denmark
1946;Tønder Kirke ;Th. Frobenius & Co;;37;3;Pedal;55.0569946;8.9504227;Løgumkloster Kirke, Refugievej, 6240 Løgumkloster, Denmark
1978;Tønning Kirke ;P. Bruhn & Søn;Orgelbyggeren. [Iflg. medd. fra denne].;6;1;Pedal;55.9884822;9.6617801;Tønning Kirke, Skolebakken, 8740 Brædstrup, Denmark
1994;Tårs Kirke ;Th. Frobenius & Sønner;Arkitektfirma Brøgger.;24;2;Pedal;57.3843216;10.1162064;Tårs Kirke, Bredgade, 9830 Tårs, Denmark
1996;Udlejre Kirke ;P.G. Andersen & Bruhn;Jens Munk eller Niels Munch [se noter].;22;2;Pedal;55.7938922;12.1531337;Udlejre Kirke, Ørnebjergvej, 3650 Ølstykke, Denmark
1971;Ullerup Kirke ;Marcussen & Søn;;15;2;Pedal;54.9656575;9.6626201;Ullerup Kirke, Kirkepold, Ullerup, Denmark
1977;Understed Kirke ;Bruno Christensen & Sønner;;7;1;Pedal;57.3698911;10.4597835;Understed Kirke, Understedvej, Frederikshavn Municipality, Denmark
1993;Vadum Kirke ;Bruno Christensen & Sønner;Brøgger, arkitektfirma A/S, Gistrup. [Medd. fra orgelbyggeriet 1994].;14;2;Pedal;57.1130742;9.8854203;Vadum Kirke, Brorholtvej, 9430 Vadum, Denmark
1971;Vallekilde Kirke ;Jensen & Thomsen;Orgelbyggeriet. [Se noter].;7;1;Pedal;55.7423143;11.4229541;Vallekilde Kirke, Kirkestien, 4534 Hørve, Denmark
1980;Frederikssund Kirke ;P. Bruhn & Søn;Rolf Graae [iflg. medd. fra orgelbyggeriet 1981].;20;2;Pedal;55.8386381;12.0692247;Frederikssund Kirke, Ventevej, 3600 Frederikssund, Denmark
1981;Vejlby Kirke ;Jydsk Orgelbyggeri;Gravers & Malling.;16;2;Pedal;56.1951459;10.2118118;Vejlby Kirke, Filosofgangen, 8240 Risskov, Denmark
1988;Vejle, Sct. Johannes Kirke;Bruno Christensen & Sønner;;6;1;Pedal;55.7148279;9.5237005;Sankt Johannes Kirke, Johannesgade, 7100 Vejle, Denmark
1969;Vejle, Sct. Nicolai Kirke ;Th. Frobenius & Sønner;;30;3;Pedal;NA;NA;NA
1977;Venø Kirke ;P. Bruhn & Søn;> Typeorgel [Se noter]. Orglet er tegnet af orgelbyggeriet [iflg. meddelelse fra dette].;5;1;Pedal;56.5505887;8.6236326;Venø Kirke, Klitten, Venø By, Denmark
1987;Vester Assels Kirke ;Jydsk Orgelbyggeri;;5;1;Pedal;56.7012276;8.6471249;Vester Assels Kirke, Hovedstrædet, 7970 Redsted, Denmark
1979;Vester Starup Kirke ;Jydsk Orgelbyggeri;;5;1;(Intet Pedal);55.646372;8.8068261;Vester Starup Kirke, Smedebakken, 6753 Agerbæk, Denmark
1966;Viborg Domkirke ;Marcussen & Søn;Thomas Havning. [Iflg. Nyholm, Hans: Kirkeorgler i Danmark. Turistårbogen 1987, s. 58-73].;64;4;Pedal;56.4505215;9.4125336;Viborg Cathedral, Domkirkestræde, 8800 Viborg, Denmark
1993;Viborg, Houlkær Kirke ;P. Bruhn & Søn;[Intet oplyst i orgelbyggeriets indberetning 1994].;15;2;Pedal;56.4626239;9.4502706;Houlkær Kirke, Gymnasiestien, Viborg, Denmark
1945;Vig Kirke ;Th. Frobenius & Co;Mogens Koch.;10;2;Pedal;55.8509784;11.5837477;Vig Kirke, Ellekildevej, 4560 Vig, Denmark
1942;Vilslev Kirke ;Th. Frobenius & Co;Professor Werner March, Berlin (den tyske skoles arkitekt). [Se noter].;8;1;Pedal;55.3959129;8.7026779;Vilslev Kirke, Vesterbyvej, 6771 Gredstedbro, Denmark
1979;Vinding Kirke ;Bruno Christensen & Sønner;;5;1;Pedal;55.67098;9.5731056;Vinding Kirke, Svinholtvej, 7100 Vejle, Denmark
1992;Vindinge Kirke ;Jensen & Thomsen;1968: Holger Jensen [iflg. meddelelse fra Jensen & Thomsen 1993]. 1992: Orgelbyggeriet. [Iflg. meddelelse fra orgelbyggeriet 1993].;12;2;Pedal;55.6254769;12.1376011;Vindinge Kirke, Ved Kirken, Vindinge, Denmark
1997;Virklund Kirke ;Th. Frobenius & Sønner;Arkitekter: Inger & Johannes Exner. [Iflg. medd. fra kirken november 1994].;12;2;Pedal;56.1300955;9.557744;Virklund Kirke, Digevangsvej, 8653 Them, Denmark
1898;Vivild Kirke ;Knud Olsen;;15;2;Pedal;56.4828385;10.4465737;Vivild Kirke, Langgade, 8961 Allingåbro, Denmark
1961;Voer Kirke ;I. Starup & Søn;;4;1;Anhangspedal;56.5219326;10.2683728;Voer Kirke, Voer Færgevej, Voer, Denmark
1974;Voerladegård Kirke ;Jydsk Orgelbyggeri;Hans Winther.;7;1;Pedal;56.0260863;9.7355548;Voerladegård Kirke, Kirkestien, Voerladegård, Denmark
1969;Vokslev Kirke ;Th. Frobenius & Sønner;;6;1;Pedal;56.9664423;9.6838795;Vokslev Kirke, Hobrovej, Aalborg Municipality, Denmark
1990;Vorbasse Kirke ;P. Bruhn & Søn;;12;2;Pedal;55.6315874;9.0874539;Vorbasse Kirke, Kirkegade, 6623 Vorbasse, Denmark
1946;Vråby Kirke ;Th. Frobenius & Co;Mogens Koch.;6;1;Anhangspedal;55.3442835;12.1612033;Vråby Kirke, Lerskovvej, Stevns Municipality, Denmark
1999;Ølby Kirke ;Gunnar Fabricius Husted;Inger & Johannes Exner.;19;2;Pedal;55.4816747;12.1768295;Ølby Kirke, Ølbycenter, 4600 Køge, Denmark
1980;Ølsted Kirke ;Gunnar Fabricius Husted;;11;2;Pedal;55.9213099;12.0731426;Ølsted Kirke, Hovedgaden, 3310 Ølsted, Denmark
1963;Ørum Kirke ;Th. Frobenius & Co;Leopold Teschl [Christensen 2018].;5;1;Pedal;55.7388409;9.7448411;Ørum Kirke, Kirkebuen, 8721 Daugård, Denmark
1960;Øster Brønderslev Kirke ;Jydsk Orgelbyggeri;;6;1;Pedal;57.2483323;9.9995351;Øster Brønderslev Kirke, Elmevej, Øster Brønderslev, Denmark
1869;Øster Hæsinge Kirke ;J.A. Demant;;6;1;Pedal;55.1814115;10.3148142;Øster Hæsinge Kirke, Øster Hæsingevej, Faaborg-Midtfyn Municipality, Denmark
1969;Øster Snede Kirke ;Th. Frobenius & Sønner;;8;1;Pedal;55.7969449;9.6408497;Øster Snede Kirke, Lindvedvej, Øster Snede, Denmark
1977;Aalborg, Ansgars Kirke ;Poul-Gerhard Andersen's Orgelbyggeri;;46;3;Pedal;NA;NA;NA
1929;Aalborg, Ansgars Kirke;Th. Frobenius & Co;;27;2;Pedal;NA;NA;NA
1959;Aalborg, Budolfi Kirke ;Th. Frobenius & Co;> Leopold Teschl (rygpositiv 1959 - fjernet 2008). > Facaderestaurering 1959: Restaurering og nystaffering ved kirkemaler, konservator Johs. Th. Madsen. > Leif Høeg (nyt rygpositiv 2008) [Orglet 2009,1, s. 49].;43;3;Pedal;57.0478973;9.9194378;Budolfi Church, Gammeltorv, 9000 Aalborg, Denmark
1928;Aarhus Domkirke ;Th. Frobenius & Co;;98;4;Pedal;56.1568544;10.2106463;Aarhus Cathedral, Store Torv, 8000 Aarhus C, Denmark
1979;Aarhus, Sct. Johannes Kirke ;Marcussen & Søn;;36;3;Pedal;NA;NA;NA
1967;Aarhus, Sct. Markus Kirke ;Poul-Gerhard Andersen's Orgelbyggeri;;41;3;Pedal;NA;NA;NA
1981;Åstrup Kirke ;Bruno Christensen & Sønner;;10;2;Pedal;54.8479084;12.0842448;Aastrup Kirke, Kirkebakken, 4871 Horbelev, Denmark
1994;Åstrup Kirke ;Marcussen & Søn;Rolf Graae. ;15;2;Pedal;54.8479084;12.0842448;Aastrup Kirke, Kirkebakken, 4871 Horbelev, Denmark
1970;Agerø Kirke ;Bruno Christensen;;4;1;(Intet Pedal);56.712833;8.57535;Agerø Kirke, Agerøvej, 7960 Karby, Denmark
1968;Ajdt Kirke ;Jydsk Orgelbyggeri;;6;1;Pedal;NA;NA;NA
1973;Allerup Kirke ;Bruno Christensen;> Ebbe Lehn Petersen [Se noter].;7;1;Pedal;55.3376998;10.4718287;Allerup Kirke, Allerup Bygade, 5220 Odense SØ, Denmark
1964;Allindemagle Kirke ;I. Starup & Søn;;7;2;Pedal;55.5031933;11.7177167;Allindemagle Kirke, Øvej, 4370 Store, Denmark
1983;Almind Kirke ;Th. Frobenius & Sønner;Bent Theilgaard [Se noter].;7;1;Pedal;55.5657725;9.488677;Almind Kirke, Vestergade, 6051 Almind, Denmark
1979;Als Kirke ;Marcussen & Søn;;15;2;Pedal;56.7552938;10.2943558;Als Kirke, Hulvejen, Als, Denmark
1992;Anholt Kirke ;Marcussen & Søn;Sv. Aage Kirkegaard.;7;1;Pedal;56.7034952;11.5443611;Anholt Kirke, Østervej, 8592 Anholt, Denmark
1993;Ans Kirke ;Marcussen & Søn;Rolf Graae.;15;2;Pedal;56.307355;9.5929403;Ans Kirke, Østre Langgade, 8643 Ans, Denmark
1981;Arrild Kirke ;Marcussen & Søn;;6;1;Pedal;55.149209;8.9615614;Arrild Kirke, Krovej, Arrild, Denmark
1964;Assens Kirke ;Marcussen & Søn;Arkitekt: Poul-Gerhard Andersen. [Iflg. folder om kirken (bilag)].;35;3;Pedal;56.6798529;10.0625575;Assens Kirke, Kønigsfeldtsvej, Assens, Denmark
1994;Astrup Kirke ;P. Bruhn & Søn;;18;2;Pedal;54.8479084;12.0842448;Aastrup Kirke, Kirkebakken, 4871 Horbelev, Denmark
1992;Avlum Kirke ;Marcussen & Søn;Arkitekterne, Thisted. [Ifølge meddelelse fra orgelbyggeriet 1993].;18;2;Pedal;NA;NA;NA
1970;Ballerup Kirke ;P. Bruhn;Poul-Gerhard Andersen [jf. Dansk Orgelaarbog 1987-1989, s. 15].;17;2;Pedal;55.7322392;12.3613458;Ballerup Kirke, Centrumgaden, 2750 Ballerup, Denmark
1972;Barrit Kirke ;Th. Frobenius & Sønner;Inger og Johannes Exner [Se noter].;6;1;Pedal;55.7203221;9.8783875;Barrit Kirke, Kirkebro, 7150 Barrit, Denmark
1994;Bedsted Kirke ;Marcussen & Søn;"""Arkitekterne, Thisted"" [Iflg. medd. fra orgelbyggeriet 1995]. Ib Lydholm.";12;2;Pedal;55.0584184;9.1057096;Bedsted Kirke, Kirkegade, Bedsted, Denmark
1993;Blåhøj Kirke ;Th. Frobenius & Sønner;Hans Vinther i samarbejde med orgelbyggeriet. Se noter.;8;2;Pedal;55.8514964;9.0155109;Blåhøj Kirke, Blåhøj Kirkevej, Ikast-Brande Municipality, Denmark
1954;Bov Kirke ;Marcussen & Søn;;14;2;Pedal;54.8410584;9.3679669;Bov Kirke, Kirkevej, 6330 Padborg, Denmark
1964;Brande Kirke ;Jydsk Orgelbyggeri;Edv. Thomsen.;4;1;Anhangspedal;55.9453154;9.125056;Brande Kirke, Storegade, 7330 Brande, Denmark
1877;Roholte Kirke ;J.A. Demant;;13;2;Pedal;55.1955121;12.0907746;Roholte Kirke, Vindbyholtvej, Faxe Municipality, Denmark
1968;Nimtofte Kirke ;Marcussen & Søn;;14;2;Pedal;56.4083232;10.5662251;Nimtofte Kirke, Ryomgaardvej, 8581 Nimtofte, Denmark
1967;Bregninge Kirke ;Frederiksborg Orgelbyggeri;N.M. Nielsen.;17;2;Pedal;54.7051352;11.6880432;Bregninge Kirke, Grønnegadevej, 4880 Nysted, Denmark
1941;Bregninge Kirke ;Marcussen & Søn;> Poul-Gerhard Andersen. Dekorationer: Erik Pedersen. [Se noter]. ;14;2;Pedal;54.7051352;11.6880432;Bregninge Kirke, Grønnegadevej, 4880 Nysted, Denmark
1952;Brenderup Kirke ;Th. Frobenius & Co;;11;2;Pedal;55.4805425;9.9809161;Brenderup Kirke, Kirkevej, 5464 Brenderup, Denmark
1974;Bryrup Kirke ;Bruno Christensen & Sønner;Preben Thorsen.;13;1;Pedal;56.0254094;9.5125305;Bryrup Kirke, Kirkevej, 8654 Bryrup, Denmark
1984;Brøndby Strand Kirke ;Poul-Gerhard Andersen's Orgelbyggeri;;35;3;Pedal;55.6228174;12.4192681;Brøndby Strand Kirke, Brøndby Strand Centrum, 2660 Brøndby, Denmark
1972;Brønderslev Kirke ;Th. Frobenius & Sønner;Leopold Teschl.;33;3;Pedal;57.2682286;9.9527033;Brønderslev Kirke, Krogensgade, 9700 Brønderslev, Denmark
1955;Brørup Kirke ;Th. Frobenius & Co;Rud. Gram.;6;1;Pedal;55.5016104;8.9892195;Brørup Kirke, Esbjergvej, 6650 Brørup, Denmark
1986;Darum Kirke ;Anders Havgaard Rasmussen;;11;2;Pedal;55.4309967;8.6472602;Darum Kirke, Darum Kirkesti, Store Darum, Denmark
1989;Dejbjerg Kirke ;Marcussen & Søn;Vilhelmsen & Kristensen [Se noter].;7;1;Pedal;55.999758;8.419676;Dejbjerg Kirke, Bundsbækvej, 6940 Lem, Denmark
1983;Egebjerg Kirke ;Gunnar Fabricius Husted;Rolf Graae.;13;2;Pedal;55.8452026;11.6804005;Egebjerg Kirke, Kirkesti, Egebjerg, Denmark
1973;Ejstrup Kirke ;Th. Frobenius & Sønner;Aage Kristensen og Bent Meyer. [Se noter].;7;1;Pedal;55.9827066;9.2868632;Ejstrup Kirke, Stationsvej, 7361 Ejstrupholm, Denmark
1992;Engestofte Kirke ;P. Bruhn & Søn;;7;1;Pedal;54.7625007;11.5628612;Engestofte Kirke, Søvej, Guldborgsund Municipality, Denmark
1968;Engum Kirke ;Th. Frobenius & Co;;13;2;Pedal;55.7409095;9.6579356;Engum Kirke, Engumvej, 7120 Vejle, Denmark
1993;Everdrup Kirke ;Poul-Gerhard Andersen's Orgelbyggeri;;10;2;Pedal;55.2014357;11.9568489;Everdrup Kirke, Kildebakken, 4733 Tappernøje, Denmark
1963;Reerslev Kirke ;Th. Frobenius & Co;;10;2;Pedal;55.622625;12.1854827;Reerslev Kirke, Brandhøjgårdsvej, 4030 Tune, Denmark
1957;Fjeldsø Kirke ;Jydsk Orgelbyggeri;Leopold Teschl.;5;1;Anhangspedal;NA;NA;NA
1960;Flejsborg Kirke ;Jydsk Orgelbyggeri;;4;1;Anhangspedal;56.866314;9.3423401;Flejsborg Kirke, Gattenvej, Vesthimmerland Municipality, Denmark
1988;Foldby Kirke ;Jydsk Orgelbyggeri;> Niels Brams [iflg. meddelelse fra orgelbyggeriet].;15;2;Pedal;56.2505585;10.0215671;Foldby Kirke, Kirkevej, 8471 Sabro, Denmark
1987;Folding Kirke ;Bruno Christensen & Sønner;Alan Havsteen Mikkelsen [iflg. medd. fra orgelbyggeriet 1988].;14;2;Pedal;55.4566053;9.0129742;Folding Kirke, Folding Kirkevej, 6650 Brørup, Denmark
1960;Fraugde Kirke ;Th. Frobenius & Co;;10;2;Pedal;55.3541168;10.4877044;Fraugde Kirke, Fraugdevej, 5220 Odense SØ, Denmark
1984;Fruering Kirke ;Th. Frobenius & Sønner;Inger & Johannes Exner.;14;2;Pedal;56.0336975;9.9916599;Fruering Kirke, Fruering Kirkevej, Fruering, Denmark
1993;Fræer Kirke ;Marcussen & Søn;> Arkitektfirma Brøgger, Gistrup. [Iflg. medd. fra orgelbyggeriet 1994].;10;2;Pedal;56.8588076;9.9306394;Fræer Kirke, Fræervej, 9520 Skørping, Denmark
1969;Fuglebjerg Kirke ;Frederiksborg Orgelbyggeri;> Søren Lotz.;7;1;Pedal;55.3056567;11.5484873;Fuglebjerg Kirke, Næstvedvej, 4250 Fuglebjerg, Denmark
1966;Føvling Kirke ;Th. Frobenius & Co;Rolf Graae og Sv.Aa. Aakjær i samarbejde med orgelbyggeriet.;7;1;Pedal;55.9362777;9.6054466;Føvling Kirke, Føvlingvej, 8740 Brædstrup, Denmark
1962;Fårevejle Kirke ;Th. Frobenius & Sønner;Georg Palludan. [Se noter].;10;2;Pedal;55.8025332;11.4426528;Fårevejle Kirke, Enghavevej, 4540 Fårevejle, Denmark
1976;Gentofte Kirke ;Th. Frobenius & Sønner;> Marinus Andersen.;35;3;Pedal;55.7500174;12.5417597;Gentofte Kirke, Gentoftegade, 2820 Gentofte, Denmark
1993;Gerding Kirke ;Bruno Christensen & Sønner;> Orgelbyggeren [Meddelt 1994 af orgelbyggeriet].;4;1;(Intet Pedal);56.8937287;9.954208;Gerding Kirke, Sankt Jørgens Vej, Rebild Municipality, Denmark
1938;Gislinge Kirke ;Marcussen & Søn;> Antagelig orgelbyggeriet [Se noter].;7;1;Pedal;55.7350764;11.5445781;Gislinge Kirke, Kirkevej, 4532 Gislinge, Denmark
1936;Gjesing Kirke ;Th. Frobenius & Co;;6;1;Anhangspedal;55.5077352;8.4474924;Gjesing Kirke, Ulvevej, 6715 Esbjerg N, Denmark
1985;Gjesing Kirke ;P. Bruhn & Søn;Niels Munk (kirkens arkitekt), iflg. medd. fra orgelbyggeriet. Projekttegning gengivet i annonce i Orglet 1984,1, s.13.;20;2;Pedal;55.5077352;8.4474924;Gjesing Kirke, Ulvevej, 6715 Esbjerg N, Denmark
1984;Gladsaxe Kirke ;Jensen & Thomsen;;30;3;Pedal;55.7394234;12.4726028;Gladsaxe Kirke, Gladsaxe Møllevej, 2860 Søborg, Denmark
1969;Glim Kirke ;Jensen & Thomsen;;5;1;Pedal;55.6073337;12.0268205;Glim Kirke, Glimvej, Øm, Denmark
1974;Gludsted Kirke ;Th. Frobenius & Sønner;;4;1;(Intet Pedal);56.0323116;9.3089576;Gludsted Kirke, Smedebækvej, 7361 Ejstrupholm, Denmark
1990;Gosmer Kirke ;Bruno Christensen & Sønner;Rolf Graae og Bent Meyer [iflg. medd. fra orgelbyggeriet 1991].;12;2;Pedal;55.9301348;10.1923553;Gosmer Kirke, Troldbjergvej, 8300 Odder, Denmark
1878 (?);Granslev Kirke ;J.A. Demant;;4;1;(Intet Pedal);56.3255848;9.9081449;Granslev Kirke, Granslevbyvej, Favrskov Municipality, Denmark
1968;Gredstedbro Kirke ;Marcussen & Søn;;5;1;Pedal;55.3977827;8.7439162;Gredstedbro Kirke, Kirkegade, 6771 Gredstedbro, Denmark
1839;Hjarnø Kirke ;Marcussen & Reuter;;4;1;Anhangspedal;55.8223028;10.0692138;Hjarnø Kirke, Østre Kirkevej, Snaptun, Denmark
1963;Grindsted Kirke ;Frederiksborg Orgelbyggeri;;34;3;Pedal;55.7555812;8.9316343;Grindsted Kirke, Kirkegade, 7200 Grindsted, Denmark
1973;Grædstrup Kirke ;Jydsk Orgelbyggeri;Edv. Thomsen.;6;1;Pedal;55.9785425;9.5441083;Grædstrup Kirke, Grædstrupvej, Grædstrup, Denmark
1974 (?);Græshave Kirke ;Povl Gerhard Due;Orgelbyggeren.;10;2;Pedal;54.7766563;11.227706;Græshave Kirke, Skodsebøllevej, 4920 Søllested, Denmark
1861;Gudum Kirke ;Jens Gregersen;;11;2;Pedal;56.9501164;10.0687056;Gudum Kirke, Louisendalvej, Vaarst, Denmark
1941;Gørding Kirke ;Marcussen & Søn;Orgelbyggeriet [Se noter];12;2;Pedal;55.4825218;8.7945882;Gørding Kirke, Kirkevej, 6690 Gørding, Denmark
1820;Haderslev Domkirke;Jürgen Marcussen;;17;2;Pedal;55.2497788;9.4874693;Haderslev Domkirke, Domkirkepladsen, 6100 Haderslev, Denmark
1951;Haderslev Domkirke ;Marcussen & Søn;;73;4;Pedal;55.2497788;9.4874693;Haderslev Domkirke, Domkirkepladsen, 6100 Haderslev, Denmark
1986;Hagested Kirke ;Finn Krohn;;12;2;Pedal;55.7452669;11.6188329;Hagested Kirke, Nykøbingvej, Hagested, Denmark
1978;Haslev Kirke ;Poul-Gerhard Andersen's Orgelbyggeri;Orgelbyggeren. [Næstved Tidende 20. marts 1978].;36;3;Pedal;55.3231907;11.9634977;Haslev Church, Kirkepladsen, 4690 Haslev, Denmark
1971;Haurvig Kirke ;Th. Frobenius & Sønner;;5;1;Pedal;55.9389398;8.1658346;Haurvig Kirke, Sønder Klitvej, 6960 Hvide, Denmark
1950;Hellerup Kirke ;Marcussen & Søn;Kai Rasmussen [Ebert 2000];33;3;Pedal;55.7343515;12.572954;Hellerup Kirke, Margrethevej, 2900 Hellerup, Denmark
1840;Hellested Kirke ;Marcussen & Reuter;;8;1;Pedal;55.329297;12.2442166;Hellested Kirke, Bygaden, 4652 Hårlev, Denmark
1947;Trængstrup Frimenighedskirke ;Frederiksborg Orgelbyggeri;;5;1;(Intet Pedal);56.841173;9.6569226;Farsø-Trængstrup Frimenighedskirke, Hyldal Møllevej, 9541 Suldrup, Denmark
1843;Helsingør, Kronborg Slotskirke ;Marcussen & Reuter;;20;2;Pedal;56.0386932;12.6221653;Kronborg Slotskirke, Kronborg, 3000 Helsingør, Denmark
1864;København, Esajas Kirke;Daniel Köhne;;4;1;(Intet Pedal);55.6924239;12.5783952;Esajas Kirke, Upsalagade, 1317 Copenhagen, Denmark
1976;Hjallerup Kirke ;Frederiksborg Orgelbyggeri;;8;2;Pedal;57.1686137;10.1740591;Hjallerup Kirke, Hjallerupvej, 9320 Hjallerup, Denmark
1920 (?);Hjardemål Klitkirke ;N.Chr. Christensen;;3;1;(Intet Pedal);NA;NA;NA
1979;Hjerm Kirke ;Th. Frobenius & Sønner;Orgelbyggeriet [Se noter];14;2;Pedal;56.4476314;8.7210605;Handbjerg Kirke, Øster Hjermvej, 7560 Hjerm, Denmark
1993;Hjermind Kirke ;Jensen & Thomsen;;6;1;Pedal;56.397312;9.6795458;Hjermind Kirke, Kirkegyden, 8850 Bjerringbro, Denmark
1994;Hjerting Kirke ;Carsten Lund;Alan Havsteen Mikkelsen [se noter].;31;3;Pedal;55.5257852;8.3568716;Hjerting Kirke, Hjerting Byvej, 6710 Esbjerg V, Denmark
1995;Hobro Kirke ;Bruno Christensen & Sønner;Arkitektfirma Brøgger, Fjellerad. [Iflg. medd. fra orgelbyggeriet februar 1995]. Ældre facade genanvendt [se nedenfor].;37;2;Pedal;56.6370395;9.7943168;Hobro Kirke, Kirketorvet, 9500 Hobro, Denmark
1963;Hodsager Kirke ;Th. Frobenius & Co;1963: Søren Jensen. 2003: Vilhelmsen, Marxen og Bech-Jensen.;6;1;Pedal;56.314269;8.8540425;Hodsager Kirke, Kirkestræde, Hodsager, Denmark
1987;Holmsland, Nysogn Kirke ;Th. Frobenius & Sønner;;8;1;Pedal;NA;NA;NA
1982;Holsted Kirke ;Bruno Christensen & Sønner;;10;2;Pedal;55.5122166;8.9138829;Holsted Kirke, Vestergade, 6670 Holsted, Denmark
1971;Holsted, Sct. Peders Kirke ;Th. Frobenius & Sønner;> Ole Nielsen (i samarbejde med orgelbyggeriet).;18;3;Pedal;NA;NA;NA
1972;Hoptrup Kirke ;Marcussen & Søn;;15;2;Pedal;55.1849207;9.4590811;Hoptrup Kirke, Hoptrup Kirkeby, Hoptrup, Denmark
1948;Hostrup Kirke ;Th. Frobenius & Co;;8;1;Pedal;55.5744901;8.3664631;Hostrup Kirke, Hostrupvej, 6852 Billum, Denmark
1970;Hovborg Kirke ;Marcussen & Søn;;11;2;Pedal;55.605873;8.9425972;Hovborg Kirke, Høllundvej, 6682 Hovborg, Denmark
1968;Hover Kirke ;Th. Frobenius & Sønner;1968: [Ikke oplyst]. 1994: Arkitekterne, Thisted, v/Ib Lydholm.;8;1;Pedal;56.1430044;8.4112338;Hover Kirke, Hovervej, Ringkøbing-Skjern Municipality, Denmark
1952;Hunderup Kirke ;Th. Frobenius & Co;Fin Ditlevsen.;7;1;Pedal;55.4365128;8.722276;Hunderup Kirke, Kirkevej, 6740 Bramming, Denmark
1963;Hundslund Kirke ;Th. Frobenius & Co;1963: [Ikke oplyst]. 1994: Jørn Schütze K/S. [Iflg. medd. fra orgelbyggeriet 9. marts 1995].;11;2;Pedal;55.9152932;10.0491308;Hundslund Kirke, Langgade, 8350 Hundslund, Denmark
1981;Hune Kirke ;Gunnar Fabricius Husted;Rolf Graae.;13;2;Pedal;57.2509365;9.6180346;Hune Kirke, Kirkevej, 9492 Blokhus, Denmark
1992;Hvedstrup Kirke ;Albert E. Lang;Rolf Graae.;10;2;Pedal;55.698843;12.195025;Hvedstrup Kirke, Hvedstrupvej, 2640 Hedehusene, Denmark
1975;Hvidbjerg Kirke ;Jydsk Orgelbyggeri;Arkitekter: Poul Hansen & Ib Lydholm, Thisted.;9;2;Pedal;56.6527159;8.5271318;Hvidbjerg Kirke, Kirkegade, 7790 Thyholm, Denmark
1858;Hvidovre Kirke ;Daniel Köhne;;16;2;Pedal;55.6570336;12.4725543;Hvidovre Kirke, Hvidovre Kirkeplads, 2650 Hvidovre, Denmark
1974;Højby Kirke ;Poul-Gerhard Andersen's Orgelbyggeri;;12;2;Pedal;55.9126964;11.5996896;Højby Kirke, Bag Kirken, 4572 Nørre, Denmark
1972;Højelse Kirke ;Bruno Christensen;;11;2;Pedal;55.4958146;12.122872;Højelse Kirke, Højelsevej, 4623 Lille, Denmark
1959;Hørve Kirke ;Th. Frobenius & Co;Arkitektonisk rådgiver 1993: Rolf Graae.;11;2;Pedal;55.7575195;11.4548361;Hørve Kirke, Hørve Kirkevej, 4534 Hørve, Denmark
1970;Høve Valgmenighedskirke ;Th. Frobenius & Sønner;;4;1;(Intet Pedal);55.293286;11.3730062;Høve valgmenighedskirke, Sorø Landevej, 4261 Dalmose, Denmark
1994;Ikast, Fonnesbæk Kirke ;Bruno Christensen & Sønner;Krohn & Hartvig Rasmussen, Virum. [Iflg. medd. fra orgelbyggeriet februar 1995].;18;2;Pedal;56.1271139;9.1430991;Fonnesbæk Kirke, O. Vestergaard-Poulsens Allé, 7430 Ikast, Denmark
1975;Indslev Kirke ;Bruno Christensen & Sønner;> Ebbe Lehn Petersen.;7;1;Pedal;55.4629251;9.9214871;Indslev Kirke, Indslevvej, 5466 Asperup, Denmark
1881;Dråby Kirke ;A.H. Busch & Sønner;;16;2;Pedal;56.2228935;10.7037305;Dråby Kirke, Dråby Søvej, 8400 Ebeltoft, Denmark
1971;Islev Kirke ;Th. Frobenius & Sønner;Inger og Johannes Exner (1971 og 2015) [Meddelelse fra orgelbyggeriet 2016].;30;3;Pedal;55.7023136;12.4438239;Islev Kirke, Slotsherrensvej, 2610 Rødovre, Denmark
1972;Jernved Kirke ;Vestre's Orgel- & Pianofabrikk;;7;2;Pedal;55.4178996;8.7911852;Jernved Kirke, Kirkebakken, 6771 Gredstedbro, Denmark
1992;Jorløse Kirke ;Svend E. Nielsen;;6;1;Pedal;55.6117634;11.2984807;Jorløse Kirke, Jorløse Byvej, 4470 Svebølle, Denmark
1980;Jyderup Kirke ;Marcussen & Søn;> Orgelbyggeriet v/ Jes P. Asmussen.;13;2;Pedal;55.6635373;11.4199287;Jyderup Kirke, Elmevej, 4450 Jyderup, Denmark
1972;Jyllinge Kirke ;Frederiksborg Orgelbyggeri;;7;2;Pedal;55.7517951;12.1048646;Jyllinge Kirke, Kirkestræde, 4040 Jyllinge, Denmark
1944;Jægersborg Kirke ;Marcussen & Søn;> Poul-Gerhard Andersen. [Meddelt af denne 1977]. > Træskærerarbejder: Erik Pedersen. [Villabyernes Blad 07-12-1944]. > Pibedekorationer: Victor Stensgaard. [Villabyernes Blad 07-12-1944].;25;3;Pedal;55.7602705;12.5432414;Jægersborg Kirke, Søndersøvej, 2820 Gentofte, Denmark
1991;Kirke Sonnerup Kirke ;Gunnar Fabricius Husted;;11;2;Pedal;55.6507497;11.8258465;Sonnerup Kirke, Englerupvej, 4060 Kirke, Denmark
1964;Karlebo Kirke ;Frederiksborg Orgelbyggeri;Rolf Graae.;8;1;Pedal;55.9198107;12.4109893;Karlebo Kirke, Karlebovej, Karlebo, Denmark
1965;Karup Kirke ;Jydsk Orgelbyggeri;;6;1;Pedal;56.3058796;9.1615945;Karup Kirke, Kirkebakken, 7470 Karup, Denmark
1985;Kerte Kirke ;P. Bruhn & Søn;;12;2;Pedal;55.3635544;9.9886183;Kerte Kirke, Kertevej, 5591 Gelsted, Denmark
1938;Kerteminde Kirke ;Marcussen & Søn;Harald Lønborg-Jensen. [Jfr. Hviid o. 1937]. Billedskærer og maler: Erik Petersen. [Jfr. Hviid o. 1937].;31;3;Pedal;55.4492568;10.6583203;Sankt Laurenti Kirke, Strandgade, 5300 Kerteminde, Denmark
1949;Klitmøller Kirke ;I. Starup & Søn;;8;2;Pedal;57.0390389;8.5070832;Klitmøller Kirke, Vangvej, Klitmøller, Denmark
1964;Klovborg Kirke ;Jydsk Orgelbyggeri;Edvard Thomsen.;5;1;Pedal;55.9329463;9.4999916;Klovborg Kirke, Skadevej, 8765 Klovborg, Denmark
1977;Kolding, Sct. Nicolai Kirke ;Marcussen & Søn;Rolf Graae (forestod den samtidige kirkerstaurering).;57;4;Pedal;NA;NA;NA
